name,id,mass (g),latitude,longitude
Aachen,1,21,50.775,6.08333
Aarhus,2,720,56.18333,10.23333
Abee,6,107000,54.21667,-113
Acapulco,10,1914,16.88333,-99.9
Achiras,370,780,-33.16667,-64.95
Adhi Kot,379,4239,32.1,71.8
Adzhi-Bogdo (stone),390,910,44.83333,95.16667
Agen,392,30000,44.21667,0.61667
Aguada,398,1620,-31.6,-65.23333
Aguila Blanca,417,1440,-30.86667,-64.55
Aioun el Atrouss,423,1000,16.39806,-9.57028
Aïr,424,24000,19.08333,8.38333
Aire-sur-la-Lys,425,,50.66667,2.33333
Akaba,426,779,29.51667,35.05
Akbarpur,427,1800,29.71667,77.95
Akwanga,432,3000,8.91667,8.43333
Akyumak,433,50000,39.91667,42.81667
Al Rais,446,160,24.41667,39.51667
Al Zarnkh,447,700,13.66033,28.96
Alais,448,6000,44.11667,4.08333
Albareto,453,2000,44.65,11.01667
Alberta,454,625,2,22.66667
Alby sur Chéran,458,252,45.82133,6.01533
Aldsworth,461,700,51.78333,-1.78333
Aleppo,462,3200,36.23333,37.13333
Alessandria,463,908,44.88333,8.75
Alexandrovsky,465,9251,50.95,31.81667
Alfianello,466,228000,45.26667,10.15
Allegan,2276,32000,42.53333,-85.88333
Allende,2278,2000000,26.96667,-105.31667
Almahata Sitta,48915,3950,20.74575,32.41275
Alta'ameem,2284,6000,35.27333,44.21556
Ambapur Nagla,2290,6400,27.66667,78.25
Andhara,2294,2700,26.58333,85.56667
Andover,2295,3200,44.61667,-70.75
Andreevka,2296,600,48.7,37.5
Andura,2298,17900,20.88333,76.86667
Northwest Africa 5815,50693,256.8,0,0
Angers,2301,,47.46667,-0.55
Angra dos Reis (stone),2302,1500,-22.96667,-44.31667
Ankober,2304,6500,9.53333,39.71667
Anlong,2305,2500,25.15,105.18333
Aomori,2313,320,40.81056,140.78556
Appley Bridge,2318,15000,53.58333,-2.71667
Apt,2320,3200,43.86667,5.38333
Arbol Solo,2325,810,-33,-66
Archie,2329,5070,38.5,-94.3
Arroyo Aguiar,2340,7450,-31.41667,-60.66667
Asco,2345,41,42.45,9.03333
Ash Creek,48954,9500,31.805,-97.01
Ashdon,2346,1300,52.05,0.3
Assisi,2353,2000,43.03333,12.55
Atarra,4883,1280,25.25417,80.625
Atemajac,4884,94.2,20.06667,-103.66667
Athens,4885,265,34.75,-87
Atoka,4888,1384.2,34.31667,-96.15
Aubres,4893,800,44.38333,5.16667
Aumale,4899,50000,36.16667,3.66667
Aumieres,4900,2000,44.33333,3.23333
Ausson,4903,50000,43.08333,0.58333
Avanhandava,4905,9330,-21.46028,-49.95083
Avce,4906,1230,46,13.5
Avilez,4907,146,25,-103.5
Awere,4910,134,2.71667,32.83333
Aztec,4913,2830,36.8,-108
Bachmut,4917,18000,48.6,38
Bahjoi,4922,10322,28.48333,78.5
Bald Mountain,4925,3700,35.96667,-82.48333
Baldwyn,4926,345,34.5,-88.66667
Bali,4928,1000,5.38333,16.38333
Ban Rong Du,4934,16700,16.66667,101.18333
Bandong,4935,11500,-6.91667,107.6
Bansur,4936,15000,27.7,76.33333
Banswal,4937,14,30.4,78.2
Banten,4938,629,-6.33333,106
Barbotan,4942,6400,43.95,-0.05
Barcelona (stone),4944,,41.36667,2.16667
Barea,4946,3200,42.38333,-2.5
Barnaul,4947,23.2,52.73333,84.08333
Barntrup,4948,17,52,9.1
Baroti,4949,4500,31.61667,76.8
Barwell,4954,44000,52.56528,-1.33972
Bassikounou,44876,29560,15.78333,-5.9
Baszkówka,4957,15500,52.03333,20.93583
Bath,4974,21000,45.41667,-98.31667
Bath Furnace,4975,86000,38.25,-83.75
Battle Mountain,56133,2900,40.66813,-117.18913
Bawku,4976,1557,11.08333,-0.18333
Baxter,4977,611,36.75,-93.5
Beardsley,4984,16000,39.8,-101.2
Beaver Creek,4986,14000,51.16667,-117.33333
Beddgelert,4993,794,53.01667,-4.1
Bells,5005,375,33.6,-96.46667
Belville,5009,,-32.33333,-64.86667
Benares (a),5011,3700,25.36667,82.91667
Benguerir,30443,25000,32.25,-8.15
Beni M'hira,5018,19000,32.86667,10.8
Benld,5021,1770.5,39.08333,-89.15
Benoni,5023,3880,-26.16667,28.41667
Bensour,5024,45000,30,-7
Benton,5026,2840,45.95,-67.55
Berduc,48975,270,-31.91,-58.32833
Béréba,5028,18000,11.65,-3.65
Berlanguillas,5029,1440,41.68333,-3.8
Berthoud,47355,960,40.30583,-105.02325
Bethlehem,5032,13.9,42.53333,-73.83333
Beuste,5034,2000,43.21667,-0.23333
Beyrout,5035,1100,33.88333,35.5
Bhagur,5037,18,20.88333,74.83333
Bhawad,36591,678,26.50833,73.11528
Bherai,5039,100,20.83333,71.46667
Bhola,5040,1047,22.68333,90.65
Bholghati,5041,2500,22.08333,86.9
Bialystok,5042,4000,53.1,23.2
Bielokrynitschie,5043,1900,50.13333,27.16667
Bilanga,5045,25000,12.45,-0.08333
Binningup,5051,488.1,-33.15639,115.67639
Birni N'konni,5056,560,13.76667,5.3
Bishopville,5059,6000,34.16667,-80.28333
Bishunpur,5060,1039,25.38333,82.6
Bjelaja Zerkov,5063,1850,49.78333,30.16667
Bjurböle,5064,330000,60.4,25.8
Black Moshannan Park,5065,705,40.91667,-78.08333
Blackwell,5068,2381,36.83333,-97.33333
Blanket,5071,5100,31.83333,-98.83333
Blansko,5072,470,49.36667,16.63333
Bloomington,5076,67.8,40.48,-89.00417
Bo Xian,5090,7500,33.83333,115.83333
Bocas,5093,56,23,-102
Bogou,5097,8800,12.5,0.7
Boguslavka,5098,256000,44.55,131.63333
Borgo San Donino,5110,1676,44.86667,10.05
Bori,5111,8600,21.95,78.03333
Boriskino,5112,1342,54.23333,52.48333
Borkut,5113,7000,48.15,24.28333
Borodino,5114,500,55.46667,35.86667
Botschetschki,5117,614,51.33333,33.88333
Boumdeid (2003),57168,190,17.71067,-11.3715
Boumdeid (2011),57167,3599,17.17493,-11.34133
Bovedy,5121,5460,54.56667,-6.33333
Bradford Woods,5128,762,40.5,-80.08333
Braunau,5133,39000,50.6,16.3
Breitscheid,5134,1500,50.66694,8.18361
Bremervörde,5135,7250,53.4,9.1
Brient,5140,219,52.13333,59.31667
Bruderheim,5156,303000,53.9,-112.88333
Bukhara,30448,5300,39.77978,64.60035
Bulls Run,5163,2250,,
Bunburra Rockhole,48653,324,-31.35,129.19
Bununu,5165,357,10.01667,9.58333
Bur-Gheluai,5169,120000,5,48
Burnwell,5175,1504,37.62194,-82.23722
Bursa,5177,25000,40.2,29.23333
Buschhof,5178,5000,46.45,25.78333
Bustee,5181,1500,26.78333,82.83333
Butsura,5183,29000,27.08333,84.08333
Buzzard Coulee,48654,41000,52.996,-109.84817
Cabezo de Mayo,5185,25000,37.98333,-1.16667
Cabin Creek,5186,48500,35.5,-93.5
Cacak,5187,212,43.83889,20.33333
Cali,45976,478,3.405,-76.51
Calivo,5200,2400,11.75,122.33333
Campos Sales,5249,23680,-7.03333,-40.16667
Çanakkale,5250,4000,39.8,26.6
Cañellas,5251,945,41.25,1.66667
Cangas de Onis,5252,34000,43.38333,-5.15
Canon City,5253,1400,38.47028,-105.24139
Cape Girardeau,5260,2300,37.26667,-89.58333
Capilla del Monte,5264,750,-30.88333,-64.55
Carancas,45817,342,-16.66444,-69.04389
Caratash,5265,8,38.5,27
Castalia,5291,7300,36.08333,-78.06667
Castel Berardenga,5292,,43.35,11.5
Castine,5293,94,44.38333,-68.75
Castrovillari,5295,15000,39.8,16.2
Caswell County,5296,1360,36.5,-79.25
Ceniceros,5306,1025,26.46667,-105.23333
Centerville,5307,45.6,43.2,-96.91667
Cereseto,5308,6460,45.08333,8.3
Chadong,5313,3700,28.53333,109.31667
Chail,5314,0.5,25.36667,81.66667
Chainpur,5315,8200,25.85,83.48333
Chajari,5316,18300,-30.78333,-58.05
Chandakapur,5320,8800,20.26667,76.01667
Chandpur,5321,1100,27.28333,79.05
Changde,5322,1810,29.08333,111.75
Chantonnay,5325,31500,46.68333,1.05
Charlotte,5328,4300,36.16667,-87.33333
Charsonville,5329,27000,47.93333,1.56667
Charwallas,5330,12000,29.48333,75.5
Chassigny,5331,4000,47.71667,5.36667
Château-Renard,5332,30000,47.93333,2.91667
Chaves,5334,2945,41.93333,-7.46667
Chela,5338,2936,-3.66667,32.5
Chelyabinsk,57165,100000,54.81667,61.11667
Chergach ,47347,100000,23.69639,-5.01472
Chernyi Bor,5339,6000,53.7,30.1
Cherokee Springs,5340,8400,35.03333,-81.88333
Chervettaz,5341,705,46.55,6.81667
Chervony Kut,5342,1700,50.83333,34
Chetrinahatti,5344,72,14.5,76.5
Chiang Khan,5345,367,17.9,101.63333
Chicora,5349,303,40.93333,-79.73333
Chisenga,5355,3920,-10.05944,33.395
Chitado,5356,,-17.35,13.96667
Chitenay,5357,4000,47.47083,0.97667
Cilimus,5364,1600,-6.95,108.1
Claxton,5374,1455,32.1025,-81.87278
Clohars,5383,48.6,,
Colby (Wisconsin),5395,104000,44.9,-90.28333
Cold Bokkeveld,5397,5200,-33.13333,19.38333
Coleman,5401,469,43.76111,-84.50778
Collescipoli,5403,5000,42.53333,12.61667
Conquista,5418,20350,-19.85,-47.55
Cosina,5451,1200,21.16667,-100.86667
Cranganore,5465,1460,10.2,76.26667
Crescent,5470,78.400000000000006,35.95,-97.58333
Cronstad,5474,3650,-27.7,27.3
Cross Roads,5476,167,35.63333,-78.13333
Crumlin,5477,4255,54.61667,-6.21667
Cumberland Falls,5496,17000,36.83333,-84.35
Cynthiana,5500,6000,38.4,-84.25
Dahmani,5504,18000,35.61667,8.83333
Dandapur,5511,5650,26.91667,83.96667
Daniel's Kuil,5513,1064,-28.2,24.56667
Danville,5514,2000,34.4,-87.06667
Darmstadt,6603,100,49.86667,8.65
Dashoguz,6604,7000,41.98444,59.685
Daule,51559,6580,-1.87089,-79.95756
De Cewsville,6621,340,43,-80
Deal,6634,28,40.25,-74
Delhi,6642,0.8,28.56667,77.25
Demina,6649,16400,51.46667,84.76667
Denver,6660,230,39.7825,-104.93056
Dergaon,6664,12500,26.68333,93.86667
Desuri,6693,25400,25.73333,73.61667
Devgaon,6694,12000,19,81
Devri-Khera,6696,1140,24.225,76.525
Dhajala,6698,45000,22.37778,71.42722
Dharwar,6699,1800,14.88333,75.6
Dhurmsala,7640,32000,32.23333,76.46667
Didim,47350,3396,37.35172,27.32997
Diep River,7642,1000,-33.75,18.56667
Distrito Quebracho,7649,400,-31.88333,-60.46667
Djati-Pengilon,7652,166000,-7.5,111.5
Djermaia,7656,3950,12.73333,15.05
Djoumine,7657,10000,36.95,9.55
Dokachi,7658,3840,23.5,90.33333
Dolgovoli,7659,1600,50.75,25.3
Domanitch,7661,438,40,29
Dong Ujimqin Qi,7706,128800,45.5,119.03333
Donga Kohrod,7707,230,21.86667,82.45
Dongtai,7708,5500,32.91667,120.78333
Doroninsk,7718,3891,51.2,112.3
Dosso,7722,1250,13.05,3.16667
Douar Mghila,7723,1161,32.33333,-6.3
Dowa,7725,642,-13.66667,33.91667
Drake Creek,7728,5000,36.4,-86.5
Dresden (Ontario),7731,47700,42.52,-82.26
Dubrovnik,7736,1900,42.45833,18.44167
Dunbogan,7743,30,-31.66667,152.83333
Dundrum,7745,2270,52.55,-8.03333
Dunhua,7749,,43.33333,128.25
Durala,7750,13200,30.3,76.63333
Duruma,7752,577,-4,39.5
Duwun,7754,2117,33.43333,127.26667
Dwaleni,7755,3230,-27.2,31.31667
Dyalpur,7757,300,26.25,82
Dyarrl Island,7758,188,-3,151
Eagle,7760,10000,40.78167,-96.47167
Ehole,7774,2400,-17.3,15.83333
Eichstädt,7775,3000,48.9,11.21667
Ekeby,7776,3336,56.03333,13
Ekh Khera,7777,840,28.26667,78.78333
El Idrissia,7807,10000,34.41667,3.25
El Paso de Aguila,45977,17226,25.37,-97.37
El Tigre,7819,5000,19.96722,-103.05167
Elbert,7822,680.5,39.24667,-104.58817
Elbogen,7823,107000,50.18333,12.73333
Elenovka,7824,54640,47.83333,37.66667
Ellemeet,10019,1470,51.75,4
Emmaville,10033,127,-29.46667,151.61667
Enshi,10038,8000,30.3,109.5
Ensisheim,10039,127000,47.86667,7.35
Épinal,10041,277,48.18333,6.46667
Erakot,10042,113,19.03333,81.89167
Erevan,10043,107.2,40.3,44.5
Ergheo,10044,20000,1.16667,44.16667
Erxleben,10049,2250,52.21667,11.25
Esnandes,10051,1500,46.25,-1.1
Essebi,10055,500,2.88333,30.83333
Estherville,10059,320000,43.41667,-94.83333
Farmington,10074,89400,39.75,-97.03333
Farmville,10075,56000,35.55,-77.53333
Favars,10078,1500,44.38333,2.81667
Fayetteville,10079,2360,36.05,-94.16667
Feid Chair,10080,380,36.88333,8.45
Felix,10081,3200,32.53333,-87.16667
Fenghsien-Ku,10086,82,34.6,116.75
Ferguson,10088,220,36.1,-81.41667
Fermo,10091,10200,43.18111,13.75333
Fisher,10107,17600,47.81667,-96.85
Florence,10111,3640,30.83333,-97.76667
Forest City,10119,152000,43.25,-93.66667
Forest Vale,10120,26000,-33.35,146.85833
Forksville,10123,6067,36.78333,-78.08333
Forsbach,10163,240,50.95,7.31667
Forsyth,10164,16300,33.01667,-83.96667
Fort Flatters,10166,,28.25,7
Frankfort (stone),10177,650,34.48333,-87.83333
Fuhe,52412,23000,31.47556,113.56694
Fukutomi,10836,11620,33.18333,130.2
Fünen,10838,,55.33333,10.33333
Futtehpur,10839,4000,25.95,80.81667
Fuyang,10840,2500,32.9,115.9
Galapian,10846,132.69999999999999,44.3,0.4
Galim (a),10848,36.1,7.05,12.43333
Galim (b),10849,28,7.05,12.43333
Galkiv,10850,5000,51.68333,30.78333
Gambat,10851,6400,27.35,68.53333
Gao-Guenie,10854,,11.65,-2.18333
Garhi Yasin,10860,380,27.88333,68.53333
Garland,10861,102,41.68333,-112.13333
Gashua,44882,4162,12.85,11.03333
Gasseltepaoua,10866,,14.15083,-2.04167
Geidam,10870,725,12.91667,11.91667
Gifu,10914,14290,35.53333,136.88333
Girgenti,10917,18000,37.31667,13.56667
Git-Git,10919,480,9.6,9.91667
Glanerbrug,10923,670,52.2,6.86667
Glanggang,10924,1303,-7.25,107.7
Glasatovo,10926,152000,57.35,37.61667
Glatton,10930,767,52.45972,-0.3
Gnadenfrei,10936,1750,50.66667,16.76667
Gopalpur,10948,1600,24.23333,89.05
Gorlovka,10949,3618,48.28333,38.08333
Granes,10956,9000,42.9,2.25
Grefsheim,11196,45.5,60.66667,11
Grimsby,50911,215,43.2,-79.61667
Grosnaja,11206,3500,43.66667,45.38333
Gross-Divina,11207,10500,49.26667,18.71667
Grossliebenthal,11208,8000,46.35,30.58333
Grüneberg,11426,1000,51.93333,15.5
Grzempach,11429,690,52.86667,16.63333
Gualeguaychú,11432,22000,-33,-58.61667
Guangmingshan,11435,2910,39.80417,122.76389
Guangnan,11436,,24.1,105
Guangrao,11437,1900,37.1,118.4
Guareña,11439,39000,38.73333,-6.01667
Guêa,11440,1915,43.76667,20.23333
Guibga,11442,288,13.5,-0.68333
Guidder,11443,968,9.91667,13.98333
Gujargaon,11448,2449,22.98333,76.05
Gujba,11449,100000,11.49167,11.65833
Gumoschnik,11450,5700,42.9,24.7
Gurram Konda,11464,28,13.78333,78.56667
Gursum,11465,34650,9.36667,42.41667
Gütersloh,11466,1000,51.91667,8.38333
Gyokukei,11467,1320,35,127.5
Hachi-oji,11468,0.2,35.65,139.33333
Hainaut,11472,9000,50.31667,3.73333
Hallingeberg,11479,1456,57.81667,16.23333
Hamlet,11485,3710,41.38333,-86.6
Haraiya,11824,1000,26.8,82.53333
Haripura,11829,315,28.38333,75.78333
Harleton,11830,8360,32.675,-94.51167
Harrison County,11842,680,38.25,-86.16667
Hashima,11848,1110.5999999999999,35.2945,136.70033
Hassi-Jekna,11852,1250,28.95,0.81667
Hatford,11855,29000,51.65,-1.51667
Haverö,11859,1544,60.24556,22.06194
Hedeskoga,11869,3500,55.46667,13.78333
Hedjaz,11870,6100,27.33333,35.66667
Heredia,11875,1000,10,-84.1
Hessle,11878,20000,59.85,17.66667
Higashi-koen,11883,750,33.6,130.43333
High Possil,11884,4500,55.9,-4.23333
Hiroshima,11889,414,34.45,132.38333
Hoima,44714,167.7,1.345,31.47278
Hökmark,11893,305.5,64.43333,21.2
Holbrook,11894,220000,34.9,-110.18333
Holetta,11895,1415,9.06667,38.41667
Homestead,11901,230000,41.8,-91.86667
Honolulu,11904,2420,21.3,-157.86667
Hotse,11913,180,35.66667,115.5
Hoxie,11915,266.10000000000002,39.35,-100.45
Hraschina,11916,49000,46.1,16.33333
Huaxi,54719,1600,26.46469,106.63241
Hungen,11986,112,50.3,8.91667
Hvittis,11989,14000,61.18333,22.68333
Ibbenbüren,11992,2000,52.28333,7.7
Ibitira,11993,2500,-20,-45
Ibrisim,11994,,38,35
Ichkala,11995,3973,58.2,82.93333
Idutywa,12000,3457,-32.1,28.33333
Iguaracu,12003,1200,-23.2,-51.83333
Ijopega,12004,7330,-6.03333,145.36667
Indarch,12027,27000,39.75,46.66667
Independence,12028,880,39.08333,-94.4
Inner Mongolia,12037,3000,41,112
Innisfree,12039,4576,53.415,-111.3375
Ipiranga,12043,7000,-25.5,-54.5
Ishinga,12049,1300,-8.93333,33.8
Isthilart,12053,3050,-31.18333,-57.95
Itapicuru-Mirim,12056,2024,-3.4,-44.33333
Itqiy,12058,4720,26.59083,-12.95217
Ivuna,12063,704.5,-8.41667,32.43333
Jackalsfontein,12065,48000,-32.5,21.9
Jajh deh Kot Lalu,12067,973,26.75,68.41667
Jalanash,12068,700,,
Jalandhar,12069,1967,31,75
Jamkheir,12072,22,18.75,75.33333
Jartai,12074,20500,39.7,105.8
Jelica,12078,34000,43.83333,20.44167
Jemlapur,12079,450,,
Jesenice,51589,3667,46.42137,14.05217
Jhung,12085,5900,31.3,72.38333
Jiange,12086,222,31.91667,104.91667
Jianshi,12087,600000,30.80833,109.5
Jilin,12171,4000000,44.05,126.16667
Jodiya,47362,100,22.68,70.31333
Jodzie,12173,30,55.7,24.4
Johnstown,12198,40300,40.35,-104.9
Jolomba,12199,483,-11.85,15.83333
Jonzac,12202,5000,45.43333,-0.45
Juancheng,12203,100000,35.5,115.41667
Judesegeri,12207,680,12.85,76.8
Jumapalo,12209,32490,-7.71667,111.2
Junan,12210,950,35.2,118.8
Juromenha,12213,25250,38.74028,-7.27
Juvinas,12214,91000,44.71667,4.3
Kaba,12218,3000,47.35,21.3
Kabo,12220,13400,11.85,8.21667
Kadonah,12221,89,27.08333,78.33333
Kaee,12222,230,27.25,79.96667
Kagarlyk,12227,1900,49.86667,30.83333
Kaidun,12228,2000,15,48.3
Kainsaz,12229,200000,55.43333,53.25
Kakangari,12230,350,12.38333,78.51667
Kakowa,12231,577,45.13333,21.66667
Kalaba,12232,950,-6.83333,29.5
Kalumbi,12236,4500,17.83333,73.98333
Kamalpur,12238,2770,26.03333,81.46667
Kamiomi,12240,448,36.04167,139.95667
Kamsagar,12241,1293,14.18333,75.8
Kandahar (Afghanistan),12243,299,31.6,65.78333
Kangean,12245,1630,-7,115.5
Kangra Valley,12246,400,32.08333,76.3
Kapoeta,12251,11355,4.7,33.63333
Kaprada,47357,1600,20.33916,73.22329
Kaptal-Aryk,12253,3500,42.45,73.36667
Karakol,12256,3000,47.21667,81.01667
Karatu,12258,2220,-3.5,35.58333
Karewar,12260,180,12.9,7.15
Karkh,12262,22000,27.8,67.16667
Karloowala,12263,2950,31.58333,71.6
Karoonda,12264,41730,-35.08333,139.91667
Kasamatsu,12266,710,35.36667,136.76667
Kasauli,30740,16820,29.58333,77.58333
Katagum,35465,1500,11.33333,10.08333
Kavarpura,47351,6800,25.14333,75.81333
Kayakent,12268,85000,39.26333,31.78
Kediri,12270,3300,-7.75,112.01667
Kemer,53654,5760,36.54194,29.41822
Kendleton,12275,6937,29.45,-96
Kendrapara,12276,6669.2,20.4625,86.70278
Kerilis,12282,5000,48.4,-3.3
Kernouve,12284,80000,48.11667,-3.08333
Kesen,12286,135000,38.98333,141.61667
Khairpur,12288,13600,29.53333,72.3
Khanpur,12289,3698,25.55,83.11667
Kharkov,12291,1500,50.625,35.075
Kheragur,12294,450,26.95,77.88333
Khetri,12296,100,28.01667,75.81667
Khmelevka,12297,6109,56.75,75.33333
Khohar,12298,9700,25.1,81.53333
Khor Temiki,12299,3200,16,36
Kidairat,12300,100000,14,28
Kiel,12301,737.6,54.4,10.15
Kiffa,12303,1500,16.58333,-11.33333
Kijima (1906),12305,331,36.85,138.38333
Kikino,12306,195,55,34
Kilabo,12307,19000,12.76667,9.8
Kilbourn,12308,772,43.58333,-89.6
Killeter,12309,140,54.66667,-7.66667
Kingai,12316,67.400000000000006,11.63333,24.68333
Kirbyville,12321,97.7,30.75,-95.95
Kisvarsány,12325,1550,48.16667,22.30833
Kitchener,12326,202.6,43.38333,-80.38333
Klein-Wenden,12332,3250,51.6,10.8
Knyahinya,12335,500000,48.9,22.4
Kobe,12336,136,34.73333,135.16667
Kokubunji,12342,11510,34.3,133.95
Komagome,12343,238,35.73333,139.75
Konovo,12344,90,42.51667,26.16667
Košice,53810,4300,48.76367,21.17633
Krähenberg,12353,16500,49.32694,7.46472
Krasnoi-Ugol,12355,2440,54.03333,40.9
Krasnyi Klyuch,12357,4000,54.33333,56.08333
Krutikha,12363,845.2,56.8,77
Krymka,12364,50000,47.83333,30.76667
Kukschin,12368,2250,51.15,31.7
Kulak,12369,453.6,30.73111,66.80222
Kuleschovka,12370,6000,50.75,33.5
Kulp,12373,3719,41.11667,45
Kunashak,12377,200000,55.78333,61.36667
Kunya-Urgench,12379,1100000,42.25,59.2
Kushiike,12381,4460,37.05,138.38333
Kusiali,12382,5,29.68333,78.38333
Kutais,12383,23,44.51667,39.3
Kuttippuram,12384,45000,10.83333,76.03333
Kuznetzovo,12385,4047,55.2,75.33333
Kyushu,12390,45000,32.03333,130.63333
La Bécasse,12392,2800,47.08333,1.75
La Charca,12394,399,20.66667,-101.28333
La Colina,12395,2000,-37.33333,-61.53333
La Criolla,12396,45000,-31.23333,-58.16667
Laborel,12408,3833,44.28333,5.58333
Lahrauli,12433,900,26.78333,82.71667
L'Aigle,12434,37000,48.76667,0.63333
Lakangaon,12435,212.5,21.86667,76.03333
Lalitpur,12451,372,24.45,78.56667
Lancé,12455,51700,47.7,1.06667
Lancon,12456,7000,43.75,5.11667
Långhalsen,12461,2300,58.85,16.73333
Lanxi,12464,1282,46.24167,126.19611
Lanzenkirchen,12465,7000,47.75,16.23333
Laochenzhen,12466,14250,33.13333,115.16667
Launton,12740,1060,51.9,-1.11667
Lavrentievka,12743,800,52.45,51.56667
Le Pressoir,12748,3000,47.16667,0.43333
Le Teilleul,12749,780,48.53333,-0.86667
Leedey,12755,51500,35.88333,-99.33333
Leeuwfontein,12756,460,-25.66667,28.36667
Leighlinbridge,12759,271.39999999999998,52.66667,-6.96667
Leighton,12760,877,34.58333,-87.5
Leonovka,12765,700,52.26667,32.85
Les Ormes,12769,125,48.35,3.25
Lesves,12772,2000,50.36667,4.73333
Lichtenberg,14646,4000,-26.15,26.18333
Lillaverke,14650,6862,56.65,15.86667
Limerick,14652,50000,52.56667,-8.78333
Linum,14655,1862,52.75,12.9
Lishui,14659,498,31.63333,118.98333
Lissa,14661,12800,50.2,14.85
Little Piney,14664,491,37.91667,-92.08333
Lixna,14670,5213,56,26.43333
Lodran,14675,1000,29.53333,71.8
Lohawat,14678,40000,26.96556,72.62667
Lorton,52843,329.7,38.70066,-77.21163
Los Martinez,14708,25,38,-0.83333
Lost City,14711,17000,36.00833,-95.15
Louisville,14716,1300,38.25,-85.75
Łowicz,14718,59000,52,19.91667
Lua,14721,9241,24.95,75.15
Lucé,14724,3500,47.85,0.48333
Lumpkin,14753,340,32.03333,-84.76667
Lunan,14754,2520,24.8,103.3
Lundsgård,14755,11000,56.21667,13.03333
Luotolax,14756,885,61.2,27.7
Luponnas,14757,14000,46.21667,5
Lusaka,14759,,-7.21667,29.43333
Mabwe-Khoywa,14764,540,19,97
Macau,15370,1500,-5.2,-36.66667
Machinga,15371,93200,-15.21222,35.24222
Macibini,15372,1995,-28.83333,31.95
Madhipura,15379,1000,25.91667,86.36667
Madiun,15380,400,-7.75,111.53333
Madrid,15382,400,40.41667,-3.71667
Mafra,15383,600,-26.16667,-49.93333
Magnesia,15386,5000,37.86667,27.51667
Magombedze,15387,666.6,-19.48333,31.65
Mahadevpur,47361,70500,27.66667,95.78333
Maigatari-Danduma,30751,4629,12.83333,9.38333
Malaga,15393,150,32.21667,-104
Malakal,15394,2000,9.5,31.75
Malampaka,15395,470,-3.13333,33.51667
Malotas,15397,,-28.93333,-63.23333
Malvern,15400,807,-29.45,26.76667
Mamra Springs,15401,1000,45.21667,62.08333
Manbhoom,15402,1700,23.05,86.7
Manegaon,15403,50,20.96667,76.1
Mangwendi,15405,22300,-17.65,31.6
Manych,15409,3555,45.81667,44.63333
Mardan,15414,4500,34.23333,72.08333
Maria Linden,15418,114,,
Mariaville,15419,340,42.71667,-99.38333
Maribo,48973,25.81,54.76183,11.46745
Maridi,15421,3200,4.66667,29.25
Marilia,15422,2500,-22.25,-49.93333
Marion (Iowa),15424,28400,41.9,-91.6
Marjalahti,15426,45000,61.5,30.5
Marmande,15429,3000,44.5,0.15
Maromandia,15430,6000,-14.2,48.1
Maryville,15436,1443,35.8,-84.1
Mascombes,15438,1000,45.36667,1.86667
Mason Gully,53653,24.54,0,0
Mässing,15443,1600,48.13333,12.61667
Mauerkirchen,15446,19000,48.18333,13.13333
Mauritius,15447,220,-20,57
Mayo Belwa,15451,4850,8.96667,12.08333
Mazapil,15453,4000,24.68333,-101.68333
Maziba,15454,4975,-1.21667,30
Mbale,15455,150000,1.06667,34.16667
Medanitos,15467,31,-27.25,-67.5
Meerut,15469,22,29.01667,77.8
Meester-Cornelis,15470,24750,-6.23333,106.88333
Menow,15485,10500,53.18333,13.15
Menziswyl,15486,28.9,46.81867,7.21817
Mern,15489,4000,55.05,12.06667
Meru,15491,6000,0,37.66667
Merua,15492,71400,25.48333,81.98333
Messina,15495,2405,38.18333,15.56667
Meuselbach,16626,870,50.58333,11.1
Mezel,16627,1300,45.76667,3.25
Mezö-Madaras,16628,22700,46.5,25.73333
Mhow,16629,350,25.9,83.61667
Mianchi,16631,1100,34.8,111.7
Middlesbrough,16632,1600,54.56667,-1.16667
Mifflin,52090,3584,42.9075,-90.36556
Mighei,16634,8000,48.06667,30.96667
Mihonoseki,16635,6380,35.56833,133.22
Mike,16636,224.2,46.23333,17.53333
Milena,16640,10000,46.18333,16.1
Millbillillie,16643,330000,-26.45,120.36667
Miller (Arkansas),16645,16700,35.4,-92.05
Minamino,16692,1040,35.07833,136.93333
Mineo,16696,42,37.28333,14.7
Min-Fan-Zhun,16697,5500,32.33333,120.66667
Minnichhof,16700,550,47.7,16.6
Mirzapur,16701,8510,25.68333,83.25
Misshof,16703,5800,56.66667,23
Mjelleim,16707,100.7,61.73333,5.93333
Mocs,16709,300000,46.8,24.03333
Modoc (1905),16711,35000,38.5,-101.1
Mokoia,16713,4500,-39.63333,174.4
Molina,16715,144000,38.11667,-1.16667
Molteno,16717,150,-31.25,26.46667
Monahans (1998),16719,2587,31.60833,-102.85833
Monroe,16720,8600,35.25,-80.5
Monte das Fortes,16725,4885,38.01667,-8.25
Monte Milone,16726,3130,43.26667,13.35
Montferré,16727,149000,43.39056,1.9625
Montlivault,16729,500,47.63333,1.58333
Monze,16733,,-15.96667,27.35
Moore County,16736,1880,35.41667,-79.38333
Mooresfort,16737,3520,52.45,-8.33333
Moorleah,16738,8887.5,-40.975,145.6
Moradabad,16740,70,28.78333,78.83333
Morávka,16742,633,49.6,18.53333
Mornans,16747,1300,44.6,5.13333
Moss,36592,3763,59.43333,10.7
Moti-ka-nagla,16759,1500,26.83333,77.33333
Motta di Conti,16762,9150,45.2,8.5
Mount Browne,16766,11300,-29.8,141.7
Mount Tazerzait,16804,110000,18.7,4.8
Mount Vaisi,16805,17000,44.08333,6.86667
Mtola,16820,1100,-11.5,33.5
Muddoor,16841,4400,12.63333,77.01667
Mulletiwu,16851,25.5,9.33333,80.83333
Muraid,16874,4703,24.5,90.21667
Murchison,16875,100000,-36.61667,145.2
Murray,16882,12600,36.6,-88.1
Muzaffarpur,16885,1245,26.13333,85.53333
Myhee Caunta,16887,,23.05,72.63333
Nadiabondi,16889,8165,12,1
Nagai,16890,1810,38.12167,140.06167
Nagaria,16892,20,26.98333,78.21667
Nagy-Borové,16893,6100,49.16667,19.5
Nakhla,16898,10000,31.31667,30.35
Nakhon Pathom,16899,23200,13.73333,100.08333
Nammianthal,16902,4500,12.28333,79.2
Nan Yang Pao,16903,52900,35.66667,103.5
Nanjemoy,16904,7500,38.41667,-77.16667
Nantong,16907,529,32.11667,121.8
Naoki,16908,17000,19.25,77
Naragh,16909,2700,33.75,51.5
Narellan,16912,367.5,-34.05,150.68889
Narni,16914,,42.51667,12.51667
Nassirah,16922,347,-21.73333,165.9
Natal,16923,1.4,,
Nawapali,16927,105,21.25,83.66667
Neagari,16934,420,36.44917,136.46528
Nedagolla,16935,4500,18.68333,83.48333
Nejo,16941,2450,9.5,35.33333
Nerft,16945,10250,56.5,21.5
Neuschwanstein,16950,6189,47.525,10.80833
New Concord,16953,230000,40,-81.76667
New Halfa,16954,12000,15.36667,35.68333
New Orleans,16960,19256,29.94718,-90.10976
Ngawi,16966,1393,-7.45,111.41667
N'Goureyma,16968,37500,13.85,-4.38333
Nicorps,16970,,49.03333,-1.43333
Niger (L6),16974,3.3,,
Niger (LL6),16975,3.3,,
Nikolaevka,16976,3996,52.45,78.63333
Nikolskoe,16977,6000,56.11667,37.33333
Ningbo,16980,14250,29.86667,121.48333
Ningqiang,16981,4610,32.925,105.90667
Nio,16982,467,34.2,131.56667
N'Kandhla,16983,17200,-28.56667,30.7
Nobleborough,16984,2300,44.08333,-69.48333
Noblesville,16985,483.7,40.08528,-86.055
Nogata,16988,472,33.725,130.75
Nogoya,16989,4000,-32.36667,-59.83333
Norfork,16994,1050,36.21667,-92.26667
Norton County,17922,1100000,39.68333,-99.86667
Noventa Vicentina,17930,177,45.29167,11.52722
Novo-Urei,17933,1900,54.81667,46
Novy-Ergi,17934,,58.55,31.33333
Novy-Projekt,17935,1001,56,22
Noyan-Bogdo,17936,250,42.91667,102.46667
Nuevo Mercurio,17938,50000,24.3,-102.13333
Nulles,17959,5000,41.63333,0.75
Numakai,17960,363,43.33333,141.86667
Nyaung,17969,737.6,21.20833,94.91667
Nyirábrany,17970,1100,47.55,22.025
Ochansk,17979,500000,57.78333,55.26667
Oesede,17988,1400,52.28333,8.05
Oesel,17989,6000,58.5,23
Ofehértó,17990,3750,47.88333,22.03333
Ogi,17994,14360,33.28333,130.2
Ohaba,17995,16250,46.06667,23.58333
Ohuma,17996,7700,6.75,8.5
Ojuelos Altos,17997,5850,38.18333,-5.4
Okabe,17998,194,36.18333,139.21667
Okano,18000,4742,35.08333,135.2
Okniny,18002,12000,50.83333,25.5
Oldenburg (1930),18009,16570,52.95,8.16667
Oliva-Gandia,18012,,39,-0.03333
Olivenza,18013,150000,38.71667,-7.06667
Olmedilla de Alarcón,18015,40000,39.56667,-2.1
Omolon,18019,250000,64.02,161.80833
Orgueil,18026,14000,43.88333,1.38333
Orlando,34489,180,28.5475,-81.36222
Ornans,18030,6000,47.11667,6.15
Ortenau,18033,4500,48.5,8
Orvinio,18034,3400,42.13333,12.93333
Oterøy,18042,246,58.88333,9.4
Otomi,18045,6510,38.4,140.35
Ottawa,18046,840,38.6,-95.21667
Ouadangou,56729,4440,12.9,0.08
Oued el Hadjar,18050,1215.5,30.18,-6.57717
Oum Dreyga,31282,17000,24.3,-13.1
Ourique,18052,20000,37.60833,-8.28
Ovambo,18055,121.5,-18,16
Oviedo,18058,205,43.4,-5.86667
Owrucz,18062,,51.33333,28.83333
Pacula,18068,3400,21.05,-99.3
Padvarninkai,18069,3858,55.66667,25
Paitan,18072,515,17.74333,120.45583
Palahatchie,18073,,32.31667,-89.71667
Palca de Aparzo,18074,1430,-23.11667,-65.1
Palinshih,18077,18000,43.48333,118.61667
Palmyra,18079,135,39.8,-91.5
Palolo Valley,18082,682,21.3,-157.78333
Pampanga,18093,10500,15.08333,120.7
Pantar,18098,2130,8.06667,124.28333
Paragould,18101,408000,36.06667,-90.5
Parambu,18102,2000,-6.23333,-40.7
Paranaiba,18103,100000,-19.13333,-51.66667
Park Forest,18106,18000,41.48472,-87.67917
Parnallee,18108,77600,9.23333,78.35
Parsa,18109,800,26.2,85.4
Pasamonte,18110,5100,36.21667,-103.4
Patora,18112,4375,20.93694,82.05
Patrimonio,18116,2121,-19.53333,-48.56667
Patti,18118,12,38.13333,14.96667
Patwar,18171,37350,23.15,91.18333
Pavel,18173,2968,43.46667,25.51667
Pavlodar (stone),18175,142.5,52.3,77.03333
Pavlograd,18176,40000,48.53333,35.98333
Pavlovka,18177,2000,52.03333,43
Pê,18179,,11.33367,-3.54217
Peace River,18180,45760,56.13333,-117.93333
Peckelsheim,18181,117.8,51.66667,9.25
Peekskill,18782,12570,41.28333,-73.91667
Peña Blanca Spring,18786,70000,30.125,-103.11667
Peramiho,18792,165,-10.66667,35.5
Perpeti,18793,23474,23.325,91
Perth,18797,2,56.4,-3.43333
Pervomaisky,18798,66000,56.63333,39.43333
Pesyanoe,18799,3393,55.5,66.08333
Pétèlkolé,18800,189,14.052,0.42
Petersburg,18801,1800,35.3,-86.63333
Pettiswood,18804,,53.53333,-7.33333
Phillips County (stone),18808,57900,40,-99.25
Phu Hong,18809,500,11.25,108.58333
Phum Sambo,18811,7800,12,105.48333
Phuoc-Binh,18812,11000,15.71667,108.1
Piancaldoli,18813,13.1,44.24417,11.50222
Picote,18816,,41.36667,-6.23333
Pillistfer,18822,23250,58.66667,25.73333
Piplia Kalan,18831,42000,26.03472,73.94167
Piquetberg,18832,37,-32.86667,18.71667
Pirgunje,18834,842,25.8,88.45
Pirthalla,18835,1161,29.58333,76
Pitts,18837,3760,31.95,-83.51667
Plantersville,18846,2085,30.7,-96.11667
Pleşcoi,51706,6913,45.275,26.70972
Ploschkovitz,18849,39,50.53333,14.11667
Pnompehn,18851,96,11.58333,104.91667
Pohlitz,18853,3000,50.93333,12.13333
Pokhra,18858,350,26.71667,82.66667
Pollen,18860,253.6,66.34833,14.015
Pontlyfni,18865,157,53.03639,-4.31944
Portales Valley,18874,71400,34.175,-103.295
Portugal,18876,4500,38.5,-8
Po-wang Chen,18879,665,31.41667,118.5
Prambachkirchen,18883,2125,48.3025,13.94083
Pribram,18887,5555,49.66667,14.03333
Pricetown,18888,900,39.11667,-83.85
Puerto Lápice,45984,500,39.35,-3.51667
Pulsora,18899,560,23.36667,75.18333
Pultusk,18901,250000,52.76667,21.26667
Punganaru,18902,100,13.33333,78.95
Putinga,18905,300000,-29.03333,-53.05
Qidong,18907,1275,32.08333,121.5
Qingzhen,18908,2600,26.53333,106.46667
Queen's Mercy,22357,7000,-30.11667,28.7
Quenggouk,22358,6045,17.76667,95.18333
Quesa,22360,10750,39,-0.66667
Quija,22361,17450,44.61667,126.13333
Quincay,22363,65,46.6,0.25
Raco,22368,5000,-26.66667,-65.45
Raghunathpura,22371,10200,27.72528,76.465
Rahimyar Khan,31302,67225,28.225,70.2
Rakovka,22376,9000,52.98333,37.03333
Ramnagar,22384,3766,26.45,82.9
Rampurhat,22385,100,24.16667,87.76667
Ramsdorf,22386,4682,51.88333,6.93333
Ranchapur,22387,290.39999999999998,23.98333,87.08333
Rancho de la Presa,22390,300,19.86667,-100.81667
Rangala,22392,3224.5,25.38333,72.01667
Raoyang,22394,4910,38.2,115.7
Ras Tanura,22395,6.1,26.66667,50.15
Rasgrad,22396,24700,43.5,26.53333
Ratyn,22398,910,52.2,17.98333
Red Canyon Lake,53502,18.41,38.13742,-119.75812
Reliegos,22584,17300,42.475,-5.33333
Rembang,22585,10000,-6.73333,111.36667
Renazzo,22586,1000,44.76667,11.28333
Renca,22587,300,-32.75,-65.28333
Renqiu,22589,355,38.66667,116.13333
Repeev Khutor,22590,7000,48.6,45.66667
Revelstoke,22592,1,51.33333,-118.95
Rewari,22593,3332,28.2,76.66667
Rich Mountain,22597,668,35.03333,-83.03333
Richardton,22599,90000,46.88333,-102.31667
Richland Springs,22602,1900,31.25,-99.03333
Richmond,22603,1800,37.46667,-77.5
Rio Negro,22611,1310,-26.1,-49.8
Rivolta de Bassi,22614,103.3,45.48333,9.51667
Rochester,22637,340,41.08333,-86.28333
Rockhampton,22640,1641,-23.38333,150.51667
Roda,22641,400,42.3,0.55
Rodach,22642,2900,50.35,10.8
Rose City,22766,10600,44.51667,-83.95
Rowton,22773,3500,52.76667,-2.51667
Ruhobobo,22780,465.5,-1.45,29.83333
Rumuruti,22782,67,0.26667,36.53333
Rupota,22783,6000,-10.26667,38.76667
Ryechki,22791,13000,51.13333,34.5
Sabetmahet,22792,1250,27.43333,82.08333
Sabrum,22793,478,23.08333,91.66667
Sagan,22796,,51.53333,14.88333
Saint-Sauveur,23101,14000,43.73333,1.38333
Saint-Séverin,23102,271000,45.3,0.23333
Sakauchi,23103,4180,35.66667,136.3
Salem,23107,61.4,44.97917,-122.96944
Salles,23111,9000,46.05,4.63333
Salzwedel,23114,43,52.75,11.05
Samelia,23115,2462,25.66667,74.86667
San Juan Capistrano,23128,56,33.48472,-117.6625
San Michele,31315,237,43.66667,13
San Pedro de Quiles,23130,282,-31.01667,-71.4
San Pedro Jacuaro,34063,460,19.76667,-100.65
Santa Barbara,23161,400,-29.2,-51.86667
Santa Cruz,23164,60,24.16667,-99.33333
Santa Isabel,23165,5500,-33.9,-61.7
Santa Lucia (2008),50909,4000,-31.535556,-68.489444
São Jose do Rio Preto,23171,927,-20.81,-49.38056
Saratov,23176,200000,52.55,46.55
Sasagase,23187,695,34.71667,137.78333
Sauguis,23188,4000,43.15,-0.85
Savtschenskoje,23190,2500,47.21667,29.86667
Sayama,23192,430,35.86667,139.4
Sazovice,23455,412,49.23333,17.56667
Schellin,23457,7000,53.35,15.05
Schenectady,23458,283.3,42.86083,-73.95028
Schönenberg,23460,8000,48.11667,10.46667
Searsmont,23472,5400,44.36667,-69.2
Sediköy,23473,240,38.3,27.13333
Segowlie,23476,6930,26.75,84.78333
Selakopi,23481,1590,-7.23333,107.33333
Seldebourak,23483,150,22.83333,4.98333
Semarkona,23487,691,22.25,79
Sena,23495,4000,41.71667,-0.05
Senboku,23496,866,39.43833,140.51167
Seoni,23500,20000,21.68389,79.50083
Seres,23501,8500,41.05,23.56667
Serra de Magé,23502,1800,-8.38333,-36.76667
Sete Lagoas,23504,350,-19.46667,-44.21667
Sevilla,23508,180,37.41667,-6
Sevrukovo,23509,101000,50.61667,36.6
Sfax,23512,7000,34.75,10.71667
Shalka,23521,4000,23.1,87.3
Sharps,23525,1265,37.83333,-76.7
Shelburne,23529,18600,44.05,-80.16667
Shergotty,23530,5000,24.55,84.83333
Sheyang,23531,605,33.65,120.06667
Shikarpur,23534,3679.7,25.85,87.5775
Shuangyang,23582,3900,43.5,125.66667
Shupiyan,23583,5000,33.71667,74.83333
Shytal,23584,3200,24.33333,90.16667
Siena,23586,3700,43.11667,11.6
Sikhote-Alin,23593,23000000,46.16,134.65333
Silao,23594,1710,20.93333,-101.38333
Silistra,55584,0.15,44.11667,27.26667
Simmern,23603,1222,49.98333,7.53333
Sinai,23606,1455,30.9,32.48333
Sindhri,23611,8400,26.21667,69.55
Sinnai,23613,2000,39.3,9.2
Sioux County,23614,4100,42.58333,-103.66667
Sitathali,23616,1600,20.91667,82.58333
Sivas,23617,40000,39.82467,36.13583
Sixiangkou,23619,630,32.43333,119.86667
Ski,23621,850,59.73333,10.86667
Slavetic,23626,1708,45.68333,15.6
Slobodka,23645,2750,55,35
Soheria,23660,72.900000000000006,27.13333,84.06667
Soko-Banja,23661,80000,43.66667,21.86667
Sologne,23663,54,47.36667,1.73333
Sołtmany,53829,1066,54.00883,22.005
Sone,23667,17100,35.16667,135.33333
Songyuan,23668,36900,45.25,125
Sopot,23670,958,44.41667,23.5
Soroti,23671,2050,1.7,33.63333
St. Caprais-de-Quinsac,23081,360,44.75,0.05
St. Christophe-la-Chartreuse,23082,5500,46.95,-1.5
St. Denis Westrem,23083,700,51.05,3.75
St. Germain-du-Pinel,23087,4000,48.01667,-1.15
St. Louis,23089,1000,38.7,-90.23333
St. Mark's,23090,13780,-32.01667,27.41667
St. Mary's County,23091,24.3,38.16667,-76.38333
St. Mesmin,23092,8300,48.45,3.93333
St. Michel,23093,17000,61.65,27.2
St.-Chinian,23097,134.30000000000001,43.43333,2.95
Ställdalen,23712,34000,59.93333,14.95
Stannern,23713,52000,49.28333,15.56667
Stavropol,23717,1500,45.05,41.98333
Ste. Marguerite,23099,4960,50.76667,3
Sterlitamak,23724,325000,53.66667,55.98333
Stolzenau,23726,,52.53333,9.05
Stratford,23728,50,41.2,-73.13333
Strathmore,23729,13400,56.58333,-3.25
Stretchleigh,23732,10400,50.38333,-3.95
St-Robert,23733,25400,45.96861,-72.97806
Success,23736,3500,36.48333,-90.66667
Suchy Dul,23737,815.3,50.53806,16.26333
Suizhou,23738,260000,31.61667,113.46667
Sulagiri,48951,110000,12.66667,78.03333
Sultanpur,23741,1710.5,25.93333,84.28333
Sungach,23745,637,44.86667,133.16667
Supuhee,23760,7235,26.71667,84.21667
Sutter's Mill,55529,992.5,38.80389,-120.90806
Sylacauga,23773,5560,33.18836,-86.2945
Tabor,23776,7540,49.4,14.65
Tadjera,23778,9000,36.18333,5.41667
Tagish Lake,23782,10000,59.70444,-134.20139
Tahara,23784,1000,34.72,137.305
Takenouchi,23789,720,35.38333,134.9
Talampaya,23791,1421,,
Tambakwatu,23795,10500,-7.75,112.76667
Tamdakht,48691,100000,31.16333,-7.015
Tané,23801,905,35.43333,136.23333
Taonan,23873,3850,45.4,122.9
Tatahouine,23884,12000,32.95,10.41667
Tathlith,23885,2500,19.38333,43.73333
Tauk,23887,6000,35.13333,44.45
Tauti,23888,21000,46.71667,23.5
Tenham,23897,160000,-25.73333,142.95
Tennasilm,23898,28500,58.03333,26.95
Thal,23908,342,33.4,70.6
Thika,54493,14200,-1.00278,37.15028
Thuathe,23976,45300,-29.33333,27.58333
Tianzhang,23984,2232,32.94667,118.99
Tieschitz,23989,28000,49.6,17.11667
Tilden,23998,74800,38.2,-89.68333
Tillaberi,23999,3000,14.25,1.53333
Timochin,24004,65500,54.5,35.2
Tirupati,24009,230,13.63333,79.41667
Tissint,54823,7000,29.48195,-7.61123
Tjabe,24011,20000,-7.08333,111.53333
Tjerebon,24012,16500,-6.66667,106.58333
Tomakovka,24019,600,47.85,34.76667
Tomatlan,24020,900,20.16667,-105.21667
Tomita,24023,600,34.5,133.75
Tomiya,24024,27.5,38.36667,140.86556
Tonk,24026,7.7,24.65,76.86667
Torino,24029,977,45.06667,7.66667
Torrington,24032,259.10000000000002,42.06667,-104.16667
Toulouse,24036,1030,43.6,1.4
Tounkin,24037,2000,51.73333,102.53333
Tourinnes-la-Grosse,24038,14500,50.78333,4.76667
Trebbin,24042,1250,52.21667,13.16667
Trenzano,24046,11800,45.46667,10
Treysa,24050,63000,50.91667,9.18333
Tromøy,24053,357.4,58.47333,8.86667
Troup,24054,1020,32.16667,-95.1
Trysil,24057,640,61.3,12.3
Tsukuba,24059,800,36.06333,140.145
Tuan Tuc,24060,13100,9.66667,105.66667
Tugalin-Bulen,24062,10000,45.46667,105.38333
Tulung Dzong,24071,,30,90.75
Turtle Lake,47343,89.3,45.34583,-92.05167
Tuxtuac,24086,30000,21.66667,-103.36667
Tysnes Island,24094,19860,60,5.61667
Tyumen,24095,750,57.16667,65.53333
Uberaba,24096,40000,-19.81667,-48.78333
Ucera,24097,4590,11.05,-69.85
Uchkuduk,24098,1000,41.76667,62.51667
Udaipur,24099,2000,,
Udei Station,24101,103000,7.95,8.08333
Uden,24103,710,51.65,5.61667
Udipi,24104,3600,13.48333,74.78333
Ufana,24106,189.2,-4.26667,35.35
Ulmiz,24108,76.5,46.93333,7.21667
Umbala,24112,100,30.33333,76.33333
Umm Ruaba,24118,1700,13.46667,31.21667
Undulung,24121,113.4,66.13889,124.76667
Unkoku,24123,1000,34.8,127
Urasaki,24129,1500,34.48333,133.28333
Usti Nad Orlici,24132,1269,49.975,16.375
Utrecht,24135,9700,52.11667,5.18333
Utzenstorf,24136,3422,47.11667,7.55
Uzcudun,24140,20000,-44.11667,-66.15
Vago,24143,40,45.41667,11.13333
Valdavur,24144,2799,11.98333,79.75
Valdinizza,24145,1004,44.86667,9.15
Valdinoce,24146,,44.06667,12.1
Valera,24149,50000,9.31667,-70.62833
Varre-Sai,53633,2500,-20.85001,-41.73356
Vavilovka,24154,1932,46.15,32.83333
Vengerovo,24158,10800,56.13333,77.26667
Veramin,24162,54000,35.33333,51.63333
Verkhne Tschirskaia,24165,8000,48.41667,43.2
Vernon County,24168,1500,43.5,-91.16667
Vetluga,24169,750,57.8,45.8
Vigarano,24174,15000,44.85,11.4
Villalbeto de la Peña,24179,3500,42.8,-4.66667
Villarrica,24181,,-25.83333,-56.5
Vilna,24183,0.1,54.225,-111.69167
Virba,24185,3600,43.53333,22.63333
Vishnupur,24187,2437,23.1,87.43333
Vissannapeta,24188,1303.8,16.83333,80.75
Visuni,24189,594,25.45,70
Vouillé,24191,20000,46.63333,0.16667
Walters,24210,28100,34.33333,-98.3
Warrenton,24215,1600,38.68333,-91.15
Washougal,24218,225,45.58333,-122.35
Werdama,47344,4000,32.79732,21.78713
Wessely,24244,3750,48.95,17.38333
Weston,24249,150000,41.266667,-73.266667
Wethersfield (1971),24250,350,41.7,-72.65
Wethersfield (1982),24251,2756,41.71056,-72.67361
Whetstone Mountains,49514,2138.7399999999998,31.96185,-110.434183
Wiluna,24281,150000,-26.59278,120.32833
Witklip Farm,24321,22,-26,30
Witsand Farm,24322,66,-28.66667,18.91667
Wittekrantz,24323,2200,-32.5,23
Wolamo,24324,166.4,9,39
Wold Cottage,24325,25000,54.13667,-0.41333
Woolgorong,24334,36000,-27.75,115.83333
Worden,24337,1551,42.38467,-83.6115
Wuan,24340,50000,36.75,114.25
Wuzhi,24342,,35.13333,113.33333
Xi Ujimgin,24345,5900,44.66667,117.5
Xingyang,24346,75500,32.33333,114.31667
Yafa,24351,5700,13.71111,45.17
Yambo,30345,4,1,22.5
Yangchiang,30348,20000,21.83333,111.83333
Yanzhuang,30350,3500,24.56667,114.16667
Yardymly,30352,150200,38.93333,48.25
Yatoor,30358,13600,14.3,79.76667
Yonozu,30366,31650,37.75,139
Yorktown (New York),30370,250,41.28333,-73.81667
Yoshiki,30372,0.1,34.16667,131.45
Yukan,30377,4800,28.71667,116.61667
Yurtuk,30378,1472,47.31667,35.36667
Zaborzika,30379,3867,50.28333,27.68333
Zabrodje,30380,3000,55.18333,27.91667
Zag,30384,175000,27.33333,-9.33333
Zagami,30386,18000,11.73333,7.08333
Zaisan,30388,463,47.5,83
Zaisho,30389,330,33.7,133.8
Zaoyang,30391,14250,32.3,112.75
Zavetnoe,30395,800,47.13333,43.9
Zavid,30396,95000,44.4,19.11667
Zebrak,30397,2000,49.88333,13.91667
Zemaitkiemis,30399,44100,55.3,25
Zhaodong,30404,42000,45.81667,125.91667
Zhovtnevyi,30407,107000,47.58333,37.25
Zhuanghe,30408,2900,39.66667,122.98333
Zmenj,30411,246,51.83333,26.83333
Zomba,30412,7500,-15.18333,35.28333
Zsadany,30413,552,46.93333,21.5
Zvonkov,30415,2568,50.2,30.25
Abajo,4,331,26.8,-105.41667
Abar al' Uj 001,51399,194.34,22.72192,48.95937
Abbott,5,21100,36.3,-104.28333
Abernathy,7,2914,33.85,-101.8
Abo,8,1.2,60.43333,22.3
Abu Moharek,9,4500,27.23944,29.83583
Acfer 001,11,6700,27.5,3.61667
Acfer 002,12,228,27.61667,3.85
Acfer 003,13,145,27.81667,4.03333
Acfer 004,14,1020,27.58333,3.81667
Acfer 005,15,115,27.6,3.83333
Acfer 006,16,561,27.63333,3.96667
Acfer 007,17,542,27.51667,3.65
Acfer 008,18,205,27.53333,3.7
Acfer 009,19,127,27.73333,4.08333
Acfer 010,20,276,27.75,4.1
Acfer 011,21,3800,27.75,4.16667
Acfer 012,22,98,27.8,4.16667
Acfer 013,23,490,27.83333,4.28333
Acfer 014,24,307,27.8,4.46667
Acfer 015,25,98,27.78333,4.28333
Acfer 016,26,111,27.71667,4.48333
Acfer 017,27,446,27.73333,4.4
Acfer 018,28,207,27.7,4.08333
Acfer 019,29,581,27.7,4.06667
Acfer 020,30,708,27.7,4.06667
Acfer 021,31,2140,27.55,3.61667
Acfer 022,32,192,27.51667,3.83333
Acfer 023,33,118,27.51667,3.91667
Acfer 024,34,1464,27.55,3.93333
Acfer 025,35,920,27.58333,3.96667
Acfer 026,36,88,27.61667,4.05
Acfer 027,37,206,27.66667,4.2
Acfer 028,38,3130,27.66667,4.25
Acfer 029,39,98,27.68333,4.33333
Acfer 030,40,123,27.68333,4.41667
Acfer 031,41,2016,27.66667,4.35
Acfer 032,42,495,27.65,4.46667
Acfer 033,43,93,27.65,4.43333
Acfer 034,44,184,27.63333,4.35
Acfer 035,45,36,27.6,4.3
Acfer 036,46,112,27.58333,4.25
Acfer 037,47,385,27.55,4.13333
Acfer 038,48,962,27.53333,4
Acfer 039,49,225,27.53333,3.91667
Acfer 040,50,146,27.46667,3.78333
Acfer 041,51,134,27.43333,3.71667
Acfer 042,52,246,27.46667,3.83333
Acfer 043,53,120,27.51667,3.91667
Acfer 044,54,195,27.55,4
Acfer 046,56,1066,27.78333,4.7
Acfer 047,57,1440,27.83333,4.7
Acfer 048,58,115,27.55,4.08333
Acfer 049,59,82.9,27.41667,3.71667
Acfer 050,60,1394,27.65,4.5
Acfer 051,61,905,27.61667,4.41667
Acfer 052,62,58,27.75,4.15
Acfer 053,63,1937,27.73333,4.05
Acfer 054,64,2051,27.7,3.93333
Acfer 055,65,1338,27.5,3.98333
Acfer 056,66,129,27.46667,3.88333
Acfer 058,67,277,27.38333,3.71667
Acfer 059,68,281,27.51667,4.06667
Acfer 060,69,226,27.56667,4.16667
Acfer 061,70,105,27.6,4.25
Acfer 062,71,283,27.6,4.41667
Acfer 063,72,716,27.61667,4.56667
Acfer 064,73,854,27.61667,4.56667
Acfer 065,74,1539,27.5,4.28333
Acfer 066,75,517,27.63333,4.06667
Acfer 067,76,383,27.71667,4.78333
Acfer 068,77,1805,27.55,3.7
Acfer 069,78,941,27.53333,3.83333
Acfer 070,79,138,27.68333,4.48333
Acfer 071,80,1379,27.63333,4.28333
Acfer 072,81,162,27.63333,4.25
Acfer 073,82,2010,27.53333,3.85
Acfer 074,83,384,27.48333,3.83333
Acfer 075,84,1453,27.51667,3.73333
Acfer 076,85,183,27.7,4.35
Acfer 077,86,2538,27.63333,4.51667
Acfer 078,87,105,27.56667,4.15
Acfer 079,88,387,27.5,3.68333
Acfer 080,89,574,27.63333,4.51667
Acfer 081,90,110,27.53333,3.86667
Acfer 082,91,208,27.5,3.48333
Acfer 083,92,690,27.48333,3.63333
Acfer 084,93,6300,27.55,3.86667
Acfer 085,94,293,27.58333,3.95
Acfer 086,95,173,27.66667,4.18333
Acfer 087,96,163,27.7,4.26667
Acfer 088,97,200,27.75,4.43333
Acfer 089,98,682,27.63333,4.3
Acfer 090,99,290,27.5,3.83333
Acfer 091,100,3487,27.45,4.11667
Acfer 092,101,244,27.66667,4.51667
Acfer 093,102,420,27.71667,4.13333
Acfer 094,103,82,27.73333,4.43333
Acfer 095,104,104,27.71667,4.38333
Acfer 096,105,572,27.61667,4.2
Acfer 097,106,63,27.51667,3.96667
Acfer 098,107,5500,27.46667,3.88333
Acfer 099,108,313,27.45,3.83333
Acfer 100,109,140,27.46667,3.95
Acfer 101,110,452,27.53333,4.16667
Acfer 102,111,346,27.66667,4.46667
Acfer 103,112,665,27.8,4.5
Acfer 104,113,992,27.63333,4.36667
Acfer 105,114,392,27.55,4.13333
Acfer 106,115,1390,27.5,3.9
Acfer 107,116,105,27.45,3.75
Acfer 108,117,828,27.5,3.88333
Acfer 109,118,236,27.55,3.76667
Acfer 110,119,107,27.48333,3.8
Acfer 111,120,987,27.48333,3.8
Acfer 112,121,216,27.65,4.03333
Acfer 113,122,2906,27.56667,4.03333
Acfer 114,123,43,27.6,3.96667
Acfer 115,124,287,27.73333,4.16667
Acfer 116,125,345,27.73333,4.16667
Acfer 117,126,178,27.73333,4.2
Acfer 118,127,752,27.66667,4.2
Acfer 119,128,121,27.65,4.23333
Acfer 120,129,861,27.65,4.3
Acfer 121,130,427,27.68333,4.33333
Acfer 122,131,235,27.5,3.66667
Acfer 123,132,452,27.46667,3.76667
Acfer 124,133,542,27.6,4.05
Acfer 125,134,3380,27.68333,4.35
Acfer 126,135,280,27.51667,3.8
Acfer 127,136,699,27.7,4.3
Acfer 128,137,163,27.5,4.3
Acfer 129,138,162,27.6,4.2
Acfer 130,139,400,27.58333,4
Acfer 131,140,171,27.58333,3.96667
Acfer 132,141,1621,27.5,3.76667
Acfer 133,142,362,27.5,3.83333
Acfer 134,143,1161,27.76667,4.53333
Acfer 135,144,124,27.55,4.03333
Acfer 136,145,324,27.46667,4.05
Acfer 137,146,106,27.58333,4.08333
Acfer 138,147,941,27.66667,4.08333
Acfer 139,148,143,27.56667,4.08333
Acfer 140,149,171,27.56667,4.08333
Acfer 141,150,58,27.58333,3.85
Acfer 142,151,91,27.56667,4.35
Acfer 143,152,417,27.66667,4.45
Acfer 144,153,186,27.66667,4.28333
Acfer 145,154,869,27.66667,4.28333
Acfer 146,155,200,27.63333,4.08333
Acfer 147,156,140,27.6,4.11667
Acfer 148,157,157,27.58333,4.06667
Acfer 149,158,394,27.58333,4.05
Acfer 150,159,251,27.56667,3.81667
Acfer 151,160,218,27.46667,3.71667
Acfer 152,161,157,27.43333,3.75
Acfer 153,162,211,27.53333,3.95
Acfer 154,163,95,27.55,4.01667
Acfer 155,164,206,27.66667,4.25
Acfer 156,165,240,27.66667,4.23333
Acfer 157,166,1072,27.66667,4.23333
Acfer 158,167,422,27.66667,4.21667
Acfer 159,168,123,27.5,3.93333
Acfer 160,169,433,27.46667,3.71667
Acfer 161,170,604,27.75,4.43333
Acfer 162,171,1281,27.66667,4.01667
Acfer 163,172,125,27.7,4.35
Acfer 164,173,43,27.53333,4.18333
Acfer 165,174,84,27.56667,4.33333
Acfer 166,175,2476,27.51667,4.23333
Acfer 167,176,157,27.51667,4
Acfer 168,177,211,27.6,3.98333
Acfer 169,178,559,27.73333,4.11667
Acfer 171,179,313,27.65,4.25
Acfer 172,180,766,27.66667,4.16667
Acfer 173,181,262,27.65,4.03333
Acfer 174,182,127,27.48333,3.86667
Acfer 175,183,153,27.48333,3.85
Acfer 176,184,320,27.48333,3.85
Acfer 177,185,721,27.48333,3.85
Acfer 178,186,488,27.48333,3.75
Acfer 179,187,163,27.46667,3.75
Acfer 180,188,103,27.6,4.16667
Acfer 181,189,245,27.66667,4.2
Acfer 182,190,166,27.7,4.35
Acfer 183,191,114,27.58333,4.16667
Acfer 184,192,311,27.56667,4.01667
Acfer 185,193,109,27.53333,3.83333
Acfer 186,194,315,27.46667,3.86667
Acfer 187,195,234,27.46667,3.9
Acfer 188,196,252,27.58333,4.11667
Acfer 189,197,53,27.6,4.18333
Acfer 190,198,4439,27.7,4.3
Acfer 191,199,188,27.7,4.3
Acfer 192,200,219,27.65,4.2
Acfer 193,201,157,27.56667,3.95
Acfer 194,202,361,27.49944,3.68889
Acfer 195,203,233,27.52472,3.81139
Acfer 196,204,29,27.57694,4.03389
Acfer 197,205,115,27.55583,4.14
Acfer 198,206,267,27.51694,3.79139
Acfer 199,207,215,27.48028,3.85139
Acfer 200,208,1301,27.50194,3.92111
Acfer 201,209,55,27.59222,3.91806
Acfer 202,210,389,27.50889,4.60167
Acfer 203,211,292,27.57806,4.36917
Acfer 204,212,64,27.64639,3.98306
Acfer 205,213,746,27.7375,4.32806
Acfer 206,214,1229,27.69083,4.37861
Acfer 207,215,105,27.68806,4.37194
Acfer 208,216,510,27.50472,3.88194
Acfer 209,217,475,27.50472,3.88194
Acfer 210,218,720,27.49722,3.87028
Acfer 211,219,1009,27.46472,3.78167
Acfer 212,220,1340,27.61278,3.71361
Acfer 213,221,526,27.68111,4.30694
Acfer 214,222,612,27.69,4.37861
Acfer 215,223,107,27.64028,4.17056
Acfer 216,224,293,27.59972,4.90361
Acfer 217,225,174,27.59444,3.88583
Acfer 218,226,114,27.54472,3.74306
Acfer 219,227,2611,27.52139,3.79139
Acfer 220,228,117,27.52417,3.79694
Acfer 221,229,812,27.5325,3.81361
Acfer 222,230,334,27.54194,3.82778
Acfer 223,231,1398,27.54194,3.82778
Acfer 224,232,85,27.63889,3.93444
Acfer 225,233,255,27.64528,3.94389
Acfer 226,234,221,27.68444,3.99389
Acfer 227,235,78,27.66861,4.425
Acfer 228,236,2285,27.57389,4.11972
Acfer 229,237,325,27.82611,4.24611
Acfer 230,238,69,27.74056,4.30833
Acfer 231,239,218,27.73472,4.31611
Acfer 232,240,725,27.73944,4.32833
Acfer 233,241,242,27.71722,4.44806
Acfer 234,242,621,27.50111,4.09861
Acfer 235,243,461,27.51889,4.01667
Acfer 236,244,81,27.51056,3.89111
Acfer 237,245,673,27.49167,3.83278
Acfer 238,246,311,27.50361,3.67306
Acfer 239,247,160,27.48444,3.66639
Acfer 240,248,342,27.49833,3.69444
Acfer 241,249,86,27.51583,3.72722
Acfer 242,250,318,27.52111,3.77333
Acfer 244,252,2045,27.52472,3.80972
Acfer 245,253,75,27.56389,3.92639
Acfer 246,254,923,27.69222,3.32167
Acfer 247,255,60,27.63611,4.03139
Acfer 248,256,402,27.63556,4.02528
Acfer 249,257,99,27.62167,3.95361
Acfer 250,258,382,27.55139,3.74194
Acfer 251,259,202,27.50972,3.88056
Acfer 252,260,146,27.51111,3.88444
Acfer 253,261,47,27.51361,3.89694
Acfer 254,262,99,27.52222,3.94694
Acfer 255,263,124,27.64611,4.39722
Acfer 256,264,235,27.64611,4.39722
Acfer 257,265,75,27.68528,4.50333
Acfer 258,266,212,27.67056,4.34611
Acfer 259,267,114,27.52444,3.87361
Acfer 260,268,177,27.47556,3.71028
Acfer 261,269,73,27.70917,4.42083
Acfer 262,270,92,27.67,4.49722
Acfer 263,271,438,27.69111,4.3375
Acfer 264,272,243,27.69472,4.30639
Acfer 265,273,83,27.715,4.19278
Acfer 266,274,518,27.72722,4.17056
Acfer 267,275,229,27.51056,3.71306
Acfer 268,276,764,27.51389,3.87528
Acfer 269,277,276,27.51472,3.86556
Acfer 270,278,298,27.51861,3.85722
Acfer 271,279,237,27.56111,4.05556
Acfer 272,280,63,27.57028,4.075
Acfer 273,281,2110,27.62194,4.45556
Acfer 274,282,203,27.63389,4.18722
Acfer 275,283,429,27.63361,4.17306
Acfer 276,284,99,27.63972,4.14528
Acfer 277,285,41,27.63917,4.14278
Acfer 278,286,72,27.63861,4.12722
Acfer 279,287,96,27.64278,4.06889
Acfer 280,288,177,27.53528,3.91278
Acfer 281,289,165,27.54222,3.88444
Acfer 282,290,67,27.65444,4.27528
Acfer 283,291,187,27.70056,4.22944
Acfer 284,292,120,27.70611,4.20583
Acfer 285,293,69,27.63139,4.10722
Acfer 286,294,407,27.79472,4.16722
Acfer 287,295,59,27.61667,4.19056
Acfer 288,296,55,27.59139,3.98806
Acfer 289,297,76,27.47417,3.86417
Acfer 290,298,213,27.54528,4.04861
Acfer 291,299,261,27.70806,4.24806
Acfer 292,300,432,27.71861,4.48611
Acfer 293,301,198,27.66583,4.19056
Acfer 294,302,457,27.64972,4.01194
Acfer 295,303,217,27.48333,3.91556
Acfer 296,304,121,27.58278,4
Acfer 297,305,43,27.63361,4.04139
Acfer 298,306,2000,27.70917,4.17444
Acfer 299,307,180,27.6825,4.42028
Acfer 300,308,270,27.59028,4.15194
Acfer 301,309,162,27.52722,3.89806
Acfer 302,310,95,27.58694,3.96417
Acfer 303,311,83,27.60222,3.98528
Acfer 304,312,60,27.62361,4.02556
Acfer 305,313,369,27.68722,4.18361
Acfer 306,314,129,27.42889,3.82
Acfer 307,315,520,27.49083,3.89778
Acfer 308,316,74,27.55972,4.01028
Acfer 309,317,185,27.64556,4.20444
Acfer 310,318,169,27.68361,4.25306
Acfer 311,319,120,27.50806,3.84417
Acfer 312,320,364,27.57861,3.96889
Acfer 313,321,78,27.60056,3.99556
Acfer 314,322,169,27.66389,4.09806
Acfer 315,323,506,27.69972,4.18611
Acfer 316,324,126,27.6875,4.245
Acfer 317,325,878,27.59278,4.40139
Acfer 318,326,292,27.55028,3.99806
Acfer 319,327,2393,27.55194,3.81611
Acfer 320,328,167,27.46056,3.88806
Acfer 321,329,157,27.5455,4.06117
Acfer 322,330,25,27.55917,4.093
Acfer 323,331,117,27.503,3.8795
Acfer 324,30428,69,27.50083,3.86983
Acfer 325,332,32,27.5,3.61667
Acfer 326,333,139,27.5,3.61667
Acfer 327,334,745.22,27.73333,4.43333
Acfer 328,335,180.07,27.73333,4.21667
Acfer 329,336,30000,27.58333,4.1
Acfer 330,337,490,27.65,4.03333
Acfer 331,338,750,27.58333,4.01667
Acfer 332,339,115.02,27.73333,4.13333
Acfer 333,340,489,27.56667,4.06667
Acfer 334,341,211.25,27.65,4.38333
Acfer 335,342,261,27.73333,4.43333
Acfer 336,343,19400,27.61667,4.06667
Acfer 337,344,360,27.68333,4.26667
Acfer 338,345,377.6,27.71667,4.26667
Acfer 339,346,400,27.55,4.2
Acfer 340,347,173.15,27.58333,4.3
Acfer 341,32781,132,27.46667,3.83333
Acfer 342,348,1276,27.59056,4.66278
Acfer 343,349,140,27.619722,4.265
Acfer 344,350,410,27.73333,4.19833
Acfer 345,351,53,27.46472,3.81417
Acfer 346,352,546,27.59056,4.66278
Acfer 347,353,1165,27.68333,4.3
Acfer 348,354,8750,27.97933,4.27817
Acfer 349,355,298,27.84067,4.31433
Acfer 350,356,128,27.672,4.52633
Acfer 351,357,211,27.7,4.13333
Acfer 352,358,873,27.76667,4.01667
Acfer 353,359,11935,27.48917,3.89
Acfer 354,360,252,27.5005,3.88233
Acfer 355,361,161,27.58967,3.781
Acfer 356,362,120,27.61233,4.5285
Acfer 357,363,62,27.50083,4.87467
Acfer 358,364,70,27.76667,4.41667
Acfer 359,365,67,27.7,4.48333
Acfer 360,30430,68,27.48333,3.76667
Acfer 361,366,138,27.42958,3.87135
Acfer 362,367,242.8,27.4778,3.70165
Acfer 363,368,389.9,27.58163,4.29388
Acfer 364,30431,656,27.7,4.51667
Acfer 365,30432,1456,27.60933,3.93567
Acfer 366,32782,1456,26.60933,3.93567
Acfer 367,30433,410,27.68433,4.42917
Acfer 368,30434,126,27.68883,4.386
Acfer 369,30435,122,27.667,4.64833
Acfer 370,32783,129,27.6725,4.35667
Acfer 371,34017,9608,27.67817,4.46533
Acfer 372,30436,238,26.61167,3.887
Acfer 373,30437,128,26.62583,3.94433
Acfer 374,32784,118,26.60867,4.053
Acfer 375,30438,495,27.5085,3.76383
Acfer 376,30439,132,27.6395,3.935
Acfer 377,30440,132,27.6625,3.97683
Acfer 378,35480,1320,27.4,3.75
Acfer 379,35338,14764,27.4114,3.70467
Acfer 380,35481,849,27.76667,4.41667
Acfer 381,35482,292,27.7,4.45
Acfer 382,35483,101,27.63333,3.93333
Acfer 386,44851,200,27.36017,3.7
Acfer 387,44852,177,27.558,4.015
Acfer 388,44853,1072,27.61667,3.86667
Acfer 389,44854,397,27.504,3.68167
Acfer 390,44855,578,27.5025,3.693
Acfer 391,53622,388,27.59617,4.172
Acfer 392,54591,74,27.51667,3.86667
Acfer 393,54592,74,27.58333,4.03333
Acfer 394,53886,364,27.51867,3.88033
Acfer 395,53887,394,27.50917,3.88767
Acfer 396,53888,148,27.512,3.89783
Acfer 397,53889,105,27.509,3.89583
Acfer 398,55262,97,27.50217,3.86083
Acfer 399,55263,89,27.50267,3.8725
Acfer 400,55264,101,27.50083,3.86617
Acfer 401,56305,9,27.68917,4.44267
Achilles,369,16000,39.77667,-100.81333
Ackerly,55379,3046,32.59033,-101.77217
Acme,371,75000,33.63333,-104.26667
Acomita,372,3956,35.05,-107.56667
Acuña,373,217700,29.31667,-100.96667
Adalia,374,1,36.9,30.68333
Adam Talha,44856,259.3,22.9935,-10.15367
Adams County,375,5700,39.96667,-103.76667
ad-Dahbubah,376,90000,19.83333,51.25
Adelaide,377,2031,,
Adelie Land,378,1000,-67.18333,142.38333
Admire,380,180000,38.7,-96.1
Adrar 001,381,1917,28.05,0.16667
Adrar 002,382,407,27.81667,0.13333
Adrar 003,383,287,27.13333,0.2
Adrar Bous,384,360,20.5,9
Adrar Chiriet,44703,926,19.64008,9.35545
Adrar Madet,385,1113,18.5,10.4
Adrar Madet 002,386,2200,18.61042,10.4941
Adrar Yaouelt,387,2730,17.67987,10.03503
Adrian,388,22600,35.15,-102.71667
Adzhi-Bogdo (iron),389,582000,44.86667,95.41667
Aggie Creek,393,43000,64.88333,-163.16667
Agoudal,57354,100000,31.98457,-5.51528
Agoult,395,82,30.55,-4.9
Agua Blanca,397,49000,-28.91667,-66.95
Aguas Calientes,399,260.10000000000002,-25.5,-68.4
Aguemour 001,400,896,26.96667,4.45
Aguemour 002,401,236,26.96667,4.4
Aguemour 003,402,809,27.36667,4.5
Aguemour 004,403,1137,27.33333,4.5
Aguemour 005,404,859,27.43583,4.63861
Aguemour 006,405,435,27.57639,4.52528
Aguemour 007,406,334,27.50778,4.60167
Aguemour 008,407,79,27.47889,4.19806
Aguemour 009,408,1446,27.42861,4.12417
Aguemour 010,409,367,27.36056,4.94472
Aguemour 011,410,207,27.35028,4.2025
Aguemour 012,411,347,27.5175,4.19111
Aguemour 013,412,364,27.56972,4.52556
Aguemour 014,413,167,27.57806,4.3225
Aguemour 015,414,1106,27.50972,4.16111
Aguemour 016,415,177,27.59167,4.31694
Aguemour 017,416,1000,27.4,4.35
Ahumada,419,52600,30.7,-105.5
Aiken,421,956,34.2,-101.5
Ainsworth,422,80650,42.6,-99.8
Akhricha,428,1760,28.4625,1.025
Akmolla,429,114,39.53833,59.55833
Akron (1940),430,1050,40.15,-103.16667
Akron (1961),431,4000,40.15,-103.16667
Al Alamayn,35484,13.31,30.70952,28.9698
Al Haggounia 001,44857,3000000,27.5,-12.5
Al Huqf 001,434,41.5,19.42,57.18833
Al Huqf 002,435,81.400000000000006,19.27167,57.38667
Al Huqf 003,436,115.42,19.50695,57.11952
Al Huqf 004,437,260.22000000000003,19.54482,57.09807
Al Huqf 005,438,763.29,19.84057,57.00848
Al Huqf 006,439,1861.21,19.84067,57.00842
Al Huqf 007,440,1042.7,19.84128,57.00953
Al Huqf 008,441,1074.3,19.84203,57.00747
Al Huqf 009,442,39.83,19.8423,57.00013
Al Huqf 010,443,41539.300000000003,19.86785,57.0028
Al Huqf 011,444,8056,19.86607,57.0032
Al Huqf 012,445,402.75,19.80252,57.32137
Al Huqf 050,35485,1066.2,19.60308,57.03332
Al Huqf 051,35486,402.75,19.80252,57.32137
Al Huqf 052,45822,1319.4,19.65675,57.0433
Al Huqf 053,45823,854.7,19.61287,57.27038
Al Huqf 054,45824,2936.5,19.61612,57.2698
Al Huqf 055,45825,1865.6,19.64073,57.28857
Al Huqf 056,45826,124,19.66453,57.3334
Al Huqf 057,45827,105.3,19.53112,57.08427
Al Huqf 058,45828,97.7,19.3421,57.1693
Al Huqf 059,45829,362.7,19.31468,57.27343
Al Huqf 060,45830,913.1,19.40518,57.26818
Al Huqf 062,45831,50.7,19.40772,57.29878
Al Huqf 063,45832,591.79999999999995,19.44533,57.02345
Al Huqf 064,48536,12834,19.40412,57.27497
Al Huqf 065,48537,2084.16,19.32092,57.22977
Al Huqf 066,48538,150.05699999999999,19.51053,57.1292
Al Huqf 067,51921,61.6,19.22597,57.54063
Al Huqf 068,51922,165.4,19.14025,57.58427
Al Huqf 069,51923,250.5,19.26795,57.13412
Al Huqf 070,51937,2632.8,19.18798,57.10978
Al Huwaysah 001,55403,3150.5,22.80487,55.32742
Al Huwaysah 002,55404,690.5,22.79853,55.31673
Al Huwaysah 003,55405,273.05,22.74862,55.37323
Al Huwaysah 004,55406,141.51,22.74733,55.39522
Al Huwaysah 005,55636,1228.0999999999999,22.73342,55.33122
Al Huwaysah 006,55407,16.41,22.73743,55.3191
Al Huwaysah 007,55408,1.56,22.73393,55.3204
Al Huwaysah 008,55409,356.2,22.73797,55.32125
Al Huwaysah 009,55410,3407.8,22.75747,55.41402
Al Huwaysah 010,55637,1411.8,22.74868,55.47218
Al Huwaysah 011,55411,112.76,22.75978,55.3908
Al Huwaysah 012,55412,4694.8999999999996,22.67752,55.34027
Al Huwaysah 013,56408,55.51,22.68423,55.33652
Al Huwaysah 014,55413,45.52,22.68598,55.32092
Al Huwaysah 015,56409,35.299999999999997,22.68922,55.32087
Al Huwaysah 016,55414,1330.9,22.69813,55.3336
Al Huwaysah 017,55415,439.58,22.73852,55.36247
Alaer 001,49713,1.7,40.33333,81.25
Alaer 002,49714,1.1,40.33333,81.25
Alamogordo,449,13600,32.9,-105.93333
Alamosa,450,1800,37.46667,-105.86667
Alatage,452,37500,42.33333,93
Albin (pallasite),455,37600,41.5,-104.1
Albin (stone),456,15400,41.41667,-104.1
Albion,457,12280,46.83333,-117.25
Aldama (a),459,11000,28.83333,-105.86667
Aldama (b),460,66.5,25.05,-106
Alexander County,464,192,35.75,-81.25
Algarrobo,467,1280,-27.08333,-70.58333
al-Ghanim (iron),468,500,19.83333,54.08333
al-Ghanim (stone),469,3755,19.7,53.96667
Algoma,470,4100,44.65,-87.46667
Alikatnima,471,20000,-23.33333,134.11667
Aliskerovo,472,58400,67.88333,167.5
al-Jimshan,473,11450,20.7,52.83333
Alkali,474,30.47,37.86667,-117.4
Alkali Flat,55662,28,32.306,-108.9038
Alkhamasin,475,1200000,20.6,44.88333
Allan Hills 03541,35731,1053.5,,
Allan Hills 03542,35732,20.399999999999999,,
Allan Hills 06001,44858,128.1,-76.71695,158.76862
Allan Hills 06002,44859,119.2,-76.74253,158.84305
Allan Hills 06003,44860,25,-76.71128,158.79283
Allan Hills 06004,44861,61.7,-76.70522,158.77838
Allan Hills 06005,44862,6,-76.70522,158.77838
Allan Hills 06006,44863,280.89999999999998,-76.70558,158.77587
Allan Hills 06007,44864,226.3,-76.70552,158.77583
Allan Hills 06008,44865,120,-76.70552,158.77485
Allan Hills 06009,44866,28.6,-76.71215,158.77527
Allan Hills 06010,44867,1.08,-76.71263,158.77862
Allan Hills 06011,44868,24.3,-76.71255,158.7786
Allan Hills 06012,44869,91,-76.71733,158.77398
Allan Hills 09001,55346,0.5,-76.74403,159.37238
Allan Hills 09002,55347,71.599999999999994,-76.74245,159.37458
Allan Hills 09003,55348,15.5,-76.74245,159.37458
Allan Hills 09004,52119,221.7,0,0
Allan Hills 09005,55797,122.3,0,0
Allan Hills 09006,55798,104.3,0,0
Allan Hills 09008,55799,31.3,0,0
Allan Hills 09009,55800,24.8,0,0
Allan Hills 09010,55801,2.6,0,0
Allan Hills 09011,55802,14.2,0,0
Allan Hills 09012,55794,18.100000000000001,0,0
Allan Hills 09013,55795,25.5,0,0
Allan Hills 09014,55796,30.2,0,0
Allan Hills 10910,56771,444.1,0,0
Allan Hills 10911,56772,218.9,0,0
Allan Hills 10912,56773,60.3,0,0
Allan Hills 82100,476,24.3,-76.97691,156.93841
Allan Hills 82101,477,29.1,-76.88426,156.93086
Allan Hills 82102,478,48.1,-77.04666,157.24407
Allan Hills 82103,479,2529.1999999999998,-76.89661,156.99137
Allan Hills 82104,480,398.8,-77.05074,157.19834
Allan Hills 82105,481,363.3,-77.04867,157.18333
Allan Hills 82106,482,35.1,-77.03788,157.2516
Allan Hills 82107,483,9.199999999999999,-76.97697,156.91541
Allan Hills 82108,484,13.5,-76.96353,156.9203
Allan Hills 82109,485,47.2,-77.02778,157.03028
Allan Hills 82110,486,39.299999999999997,-77.03342,157.25235
Allan Hills 82111,487,63,-76.91278,156.97551
Allan Hills 82112,488,28.3,-76.96674,156.91777
Allan Hills 82113,489,61.2,-76.97126,156.90291
Allan Hills 82114,490,40.700000000000003,-77.03648,157.23968
Allan Hills 82115,491,48.5,-76.97442,156.90877
Allan Hills 82116,492,18.399999999999999,-77.03694,157.04639
Allan Hills 82117,493,4.2,-77.04025,157.2305
Allan Hills 82118,494,110.9,-77.04408,157.2676
Allan Hills 82119,495,23.9,-76.9791,156.92267
Allan Hills 82120,496,7.2,-76.90581,157.00988
Allan Hills 82121,497,2.4,-77.03722,157.23658
Allan Hills 82122,498,142,-76.98507,156.90009
Allan Hills 82123,499,110.8,-76.94677,156.92971
Allan Hills 82124,500,25.8,-77.03811,157.24166
Allan Hills 82125,501,178.4,-76.98262,156.90998
Allan Hills 82126,502,139.9,-76.90692,157.0235
Allan Hills 82127,503,5.1,-76.96966,156.90165
Allan Hills 82128,504,15.2,-76.96339,156.91969
Allan Hills 82129,505,14.1,-76.97495,156.91895
Allan Hills 82130,506,44.6,-77.04237,157.25116
Allan Hills 82131,507,1,-76.88366,156.92815
Allan Hills 82132,508,5.9,-76.97583,156.94856
Allan Hills 82133,509,19.7,-76.90256,157.02793
Allan Hills 82134,510,28.2,-76.88761,156.93792
Allan Hills 82135,511,12.1,-76.91276,156.97559
Allan Hills 82136,512,4.3,-76.90694,157.02548
Allan Hills 82137,513,10.8,-77.02778,157.02833
Allan Hills 82138,514,5,-76.97795,156.92687
Allan Hills 82139,515,0.2,-77.05047,157.25814
Allan Hills 82140,516,0.3,-77.04673,157.28252
Allan Hills 82141,517,0.6,-77.03743,157.23679
Allan Hills 82142,518,20,-76.89166,156.96457
Allan Hills 82143,519,3.5,-76.92489,156.93821
Allan Hills 82144,520,7.3,-77.04713,157.28227
Allan Hills 83001,521,1568.6,-76.72109,158.73715
Allan Hills 83002,522,367.1,-76.71158,158.77453
Allan Hills 83003,523,321.8,-76.71111,159.42472
Allan Hills 83004,524,813.9,-76.81849,158.15713
Allan Hills 83005,525,227.9,-76.74472,159.40472
Allan Hills 83006,526,230.2,-76.7188,158.77155
Allan Hills 83007,527,285,-76.76806,159.33944
Allan Hills 83008,528,272,-76.69167,159.37306
Allan Hills 83009,529,1.7,-76.82204,158.20666
Allan Hills 83010,530,395.2,-76.76991,158.1405
Allan Hills 83011,531,213.3,-76.69389,159.3875
Allan Hills 83012,532,202.7,-76.71356,158.77754
Allan Hills 83013,533,246.3,-76.75889,159.34611
Allan Hills 83014,534,1.3,-76.82229,158.23233
Allan Hills 83015,535,3.1,-76.82221,158.21305
Allan Hills 83016,536,4.1,-76.82256,158.20601
Allan Hills 83017,537,0.6,-76.82235,158.20609
Allan Hills 83018,538,3.7,-76.82236,158.24213
Allan Hills 83019,539,2.6,-76.82229,158.24188
Allan Hills 83020,540,2.9,-76.81315,158.06767
Allan Hills 83021,541,42.4,-76.69694,159.39028
Allan Hills 83022,542,5.4,-76.81791,158.19091
Allan Hills 83023,543,4.2,-76.82248,158.20557
Allan Hills 83024,544,6.2,-76.82106,158.21255
Allan Hills 83025,545,77.8,-76.69139,159.3825
Allan Hills 83026,546,0.1,-76.82234,158.21493
Allan Hills 83027,547,2.7,-76.82234,158.215
Allan Hills 83028,548,16,-76.72278,159.36972
Allan Hills 83029,549,96.2,-76.8243,158.22801
Allan Hills 83030,550,48.7,-76.69111,159.38444
Allan Hills 83031,551,10.4,-76.69361,159.39167
Allan Hills 83032,552,2.9,-76.82214,158.23429
Allan Hills 83033,553,20.7,-76.69167,159.38472
Allan Hills 83034,554,6.5,-76.69944,159.39056
Allan Hills 83035,555,1.2,-76.82228,158.21366
Allan Hills 83036,556,24.3,-76.69639,159.39556
Allan Hills 83037,557,2.5,-76.82235,158.21503
Allan Hills 83038,558,86.5,-76.71769,159.36411
Allan Hills 83039,559,6.3,-76.69806,159.3975
Allan Hills 83040,560,77.900000000000006,-76.69083,159.37139
Allan Hills 83041,561,0.3,-76.82236,158.21482
Allan Hills 83042,562,0.5,-76.81765,158.19001
Allan Hills 83043,563,2.7,-76.82199,158.21505
Allan Hills 83044,564,4.8,-76.82133,158.17741
Allan Hills 83045,565,1.6,-76.82268,158.21812
Allan Hills 83046,566,32.9,-76.82584,158.22437
Allan Hills 83047,567,20,-76.69917,159.39861
Allan Hills 83048,568,2.3,-76.69694,159.39695
Allan Hills 83049,569,6.1,-76.69167,159.38528
Allan Hills 83050,570,9.699999999999999,-76.69389,159.3875
Allan Hills 83051,571,16.5,-76.71667,159.66667
Allan Hills 83052,572,52.8,-76.82326,158.21348
Allan Hills 83053,573,63.2,-76.71838,158.76949
Allan Hills 83054,574,16.8,-76.82277,158.21888
Allan Hills 83055,575,18.399999999999999,-76.69889,159.39833
Allan Hills 83056,576,1.4,-76.82197,158.21415
Allan Hills 83057,577,62.9,-76.69389,159.38945
Allan Hills 83058,578,29.2,-76.80682,158.03566
Allan Hills 83059,579,3.5,-76.82193,158.21327
Allan Hills 83060,580,8.800000000000001,-76.74,159.38167
Allan Hills 83061,581,33.6,-76.71602,158.73123
Allan Hills 83062,582,76.900000000000006,-76.71893,158.771
Allan Hills 83063,583,16.899999999999999,-76.77111,159.2875
Allan Hills 83064,584,12.4,-76.72038,158.76546
Allan Hills 83065,585,53.6,-76.71088,158.78134
Allan Hills 83066,586,45.9,-76.71951,158.76862
Allan Hills 83067,587,95.8,-76.74194,159.38083
Allan Hills 83068,588,0.8,-76.81435,158.13615
Allan Hills 83069,589,78.2,-76.69944,159.12306
Allan Hills 83070,590,215.7,-76.82202,158.13059
Allan Hills 83071,591,4.9,-76.69917,159.39861
Allan Hills 83072,592,1.6,-76.8128,158.11533
Allan Hills 83073,593,49.2,-76.71424,158.80149
Allan Hills 83074,594,6.4,-76.77046,158.15787
Allan Hills 83100,595,3019,-76.71667,159.66667
Allan Hills 83101,596,639.20000000000005,-76.98533,156.87608
Allan Hills 83102,597,1786.2,-77.04164,157.15458
Allan Hills 83103,598,51.8,-76.96968,156.9094
Allan Hills 83104,599,2.1,-76.96391,156.90554
Allan Hills 83105,600,0.7,-77.04139,157.05861
Allan Hills 83106,601,22.3,-76.96393,156.90753
Allan Hills 83107,602,38.4,-76.987,156.87283
Allan Hills 83108,603,1519.4,-77.04639,157.07722
Allan Hills 84001,604,1930.9,-76.92031,156.77355
Allan Hills 84002,605,7554,-76.74254,158.82886
Allan Hills 84003,606,3088.7,-76.73217,158.6696
Allan Hills 84004,607,9000,-76.73156,158.67942
Allan Hills 84005,608,12000,-76.89102,156.89321
Allan Hills 84006,609,16000,-76.76228,158.77438
Allan Hills 84007,610,705.6,-76.87783,158.50193
Allan Hills 84008,611,301.60000000000002,-76.88238,158.57931
Allan Hills 84009,612,335.6,-76.86569,158.52417
Allan Hills 84010,613,303,-76.88572,158.61378
Allan Hills 84011,614,138.19999999999999,-76.87851,158.61831
Allan Hills 84012,615,224.7,-76.88304,158.53214
Allan Hills 84013,616,159.9,-76.8982,158.59203
Allan Hills 84014,617,49.4,-76.88435,158.67508
Allan Hills 84015,618,263.89999999999998,-76.88495,158.60279
Allan Hills 84016,619,149.69999999999999,-76.88429,158.58777
Allan Hills 84017,620,79.8,-76.88322,158.662
Allan Hills 84018,621,81.7,-76.86224,158.51818
Allan Hills 84019,622,93.2,-76.84714,158.50969
Allan Hills 84020,623,191.1,-76.86997,158.53785
Allan Hills 84021,624,35.700000000000003,-76.85453,158.50622
Allan Hills 84022,625,12.5,-76.77022,158.80784
Allan Hills 84023,626,262.39999999999998,-76.89846,158.58451
Allan Hills 84024,627,194.4,-76.872,158.54311
Allan Hills 84025,628,4.6,-77.02267,157.02695
Allan Hills 84027,629,8,-76.90111,156.78436
Allan Hills 84028,630,735.9,-76.77066,158.8921
Allan Hills 84029,631,119.8,-77.04239,157.07331
Allan Hills 84030,632,6.2,-77.04114,157.08925
Allan Hills 84031,633,12.5,-77.03891,157.07356
Allan Hills 84032,634,7.9,-77.0394,157.07168
Allan Hills 84033,635,60.4,-76.74378,158.8388
Allan Hills 84034,636,44.1,-77.03948,157.0721
Allan Hills 84035,637,3.2,-76.99221,156.97646
Allan Hills 84036,638,2.8,-76.89532,156.83534
Allan Hills 84037,639,3,-76.97931,156.96098
Allan Hills 84038,640,12.3,-76.88906,157.05112
Allan Hills 84039,641,32.799999999999997,-76.89316,156.95714
Allan Hills 84040,642,28.7,-77.0397,157.0719
Allan Hills 84041,643,1.3,-76.99528,156.97546
Allan Hills 84042,644,51.3,-77.04288,157.07299
Allan Hills 84043,645,16.8,-77.03954,157.07239
Allan Hills 84044,646,147.4,-77.04295,157.07145
Allan Hills 84045,647,11.4,-77.03943,157.07162
Allan Hills 84046,648,1.5,-76.97908,156.96165
Allan Hills 84047,649,4.4,-77.03953,157.07168
Allan Hills 84048,650,12.6,-77.03936,157.07256
Allan Hills 84049,651,29.4,-77.03955,157.07117
Allan Hills 84050,652,3.2,-77.01641,156.97949
Allan Hills 84051,653,34.299999999999997,-77.03939,157.07174
Allan Hills 84052,654,10.5,-76.95067,156.93497
Allan Hills 84053,655,5.2,-77.02037,157.00819
Allan Hills 84054,656,19.399999999999999,-76.7406,158.81318
Allan Hills 84055,657,6900.5,-76.72944,158.74157
Allan Hills 84056,658,2140.3000000000002,-76.71667,159.66667
Allan Hills 84057,659,368.2,-76.83592,158.25518
Allan Hills 84058,660,2002.5,-77.02175,156.99984
Allan Hills 84059,661,856.9,-76.76988,158.80378
Allan Hills 84060,662,338.9,-76.89371,156.98032
Allan Hills 84061,663,676.4,-76.99289,156.95507
Allan Hills 84062,664,958.2,-76.92062,156.8752
Allan Hills 84063,665,759.6,-76.98268,156.9338
Allan Hills 84064,666,1889.1,-76.91491,156.9387
Allan Hills 84065,667,1641.7,-76.89909,156.83414
Allan Hills 84066,668,355.8,-76.72597,158.64803
Allan Hills 84067,669,391.2,-76.72477,158.71596
Allan Hills 84068,670,1114.0999999999999,-76.92766,156.94055
Allan Hills 84069,671,1136.3,-76.75137,158.84018
Allan Hills 84070,672,3951.7,-76.90824,156.8802
Allan Hills 84071,673,797.7,-76.71667,159.66667
Allan Hills 84072,674,720.9,-76.83571,158.26384
Allan Hills 84073,675,630.6,-76.91608,156.97014
Allan Hills 84074,676,757.5,-77.02126,156.98388
Allan Hills 84075,677,788.6,-76.72144,158.76413
Allan Hills 84076,678,368.7,-76.99148,156.96855
Allan Hills 84077,679,276.39999999999998,-76.96265,156.92887
Allan Hills 84078,680,283.3,-77.0238,157.01072
Allan Hills 84079,681,749.6,-76.90892,156.87924
Allan Hills 84080,682,286.8,-76.89722,156.8853
Allan Hills 84081,683,612.29999999999995,-76.92365,156.95124
Allan Hills 84082,684,556.6,-76.89074,157.05899
Allan Hills 84083,685,419.7,-76.76679,158.79649
Allan Hills 84084,686,331.8,-76.89684,156.88501
Allan Hills 84085,687,554.20000000000005,-76.72553,158.71679
Allan Hills 84086,688,234,-77.04172,157.02258
Allan Hills 84087,689,314.60000000000002,-76.90892,156.8798
Allan Hills 84088,690,297.5,-76.90225,156.92287
Allan Hills 84089,691,303.8,-76.90637,156.96454
Allan Hills 84090,692,201.8,-76.82607,158.22142
Allan Hills 84091,693,214.6,-77.03872,157.21351
Allan Hills 84092,694,213.9,-76.89987,156.97472
Allan Hills 84093,695,113.5,-76.86669,158.52076
Allan Hills 84094,696,207.6,-76.87818,157.00095
Allan Hills 84095,697,276.8,-76.93506,156.91791
Allan Hills 84096,698,293.60000000000002,-76.83027,158.31856
Allan Hills 84097,699,388.7,-76.91001,156.72089
Allan Hills 84098,700,260.5,-76.87519,156.98999
Allan Hills 84099,701,150.30000000000001,-76.87679,156.99721
Allan Hills 84100,702,110.3,-76.74282,158.83369
Allan Hills 84101,703,220.9,-76.71667,159.66667
Allan Hills 84102,704,213.9,-76.91024,156.79453
Allan Hills 84103,705,137.5,-76.75705,158.76999
Allan Hills 84104,706,201.1,-77.01648,156.97919
Allan Hills 84105,707,260.89999999999998,-76.75498,158.76252
Allan Hills 84106,708,94.7,-76.88744,156.93344
Allan Hills 84107,709,134.1,-77.04441,157.14714
Allan Hills 84108,710,214.8,-76.90198,156.76583
Allan Hills 84109,711,245.9,-76.75371,158.76659
Allan Hills 84110,712,318.5,-76.75568,158.76154
Allan Hills 84111,713,131.5,-76.74202,159.28689
Allan Hills 84112,714,145.80000000000001,-76.90657,156.81312
Allan Hills 84113,715,212.1,-76.74688,158.8072
Allan Hills 84114,716,119.9,-76.9768,156.91717
Allan Hills 84115,717,194.5,-77.04366,157.09028
Allan Hills 84116,718,56.2,-76.82442,158.38274
Allan Hills 84117,719,71.8,-76.9095,156.69457
Allan Hills 84118,720,113.7,-76.72107,159.35988
Allan Hills 84119,721,33.799999999999997,-76.90169,156.78514
Allan Hills 84120,722,129,-76.90505,156.94032
Allan Hills 84121,723,141.4,-76.72513,158.7146
Allan Hills 84122,724,81.400000000000006,-76.67555,159.30823
Allan Hills 84123,725,96.6,-76.74281,158.83348
Allan Hills 84124,726,114.5,-76.72475,158.7157
Allan Hills 84125,727,76.400000000000006,-76.73658,158.8256
Allan Hills 84126,728,41.2,-76.89442,156.85552
Allan Hills 84127,729,83.8,-76.70706,158.73423
Allan Hills 84128,730,2.1,-76.71094,158.74709
Allan Hills 84129,731,37.6,-76.91616,156.82442
Allan Hills 84130,732,45.1,-76.71597,159.36685
Allan Hills 84131,733,107.9,-76.72553,158.71352
Allan Hills 84132,734,157.80000000000001,-77.01706,156.96282
Allan Hills 84133,735,70.5,-76.90232,156.83867
Allan Hills 84134,736,113.4,-76.90037,156.77608
Allan Hills 84135,737,31.3,-76.97272,156.90759
Allan Hills 84136,738,83.5,-77.03962,157.14771
Allan Hills 84137,739,145.4,-76.72618,158.71187
Allan Hills 84138,740,20.2,-76.71035,158.78026
Allan Hills 84139,741,157.1,-76.7528,158.76289
Allan Hills 84140,742,164,-77.0238,156.99656
Allan Hills 84141,743,130.30000000000001,-76.90681,156.84795
Allan Hills 84142,744,78.5,-77.01141,156.94615
Allan Hills 84143,745,74.3,-76.75194,158.80602
Allan Hills 84144,746,53.9,-76.96327,156.92228
Allan Hills 84145,747,19.2,-76.95195,156.91759
Allan Hills 84146,748,33.200000000000003,-76.70911,158.73826
Allan Hills 84147,749,54.2,-76.91719,156.88659
Allan Hills 84148,750,168.4,-76.72522,158.71588
Allan Hills 84149,751,12,-76.71033,158.78075
Allan Hills 84150,752,20,-77.02435,156.97828
Allan Hills 84151,753,112.4,-76.75323,158.76609
Allan Hills 84152,754,6.4,-76.98859,156.96088
Allan Hills 84153,755,242.9,-76.97272,156.90759
Allan Hills 84154,756,87.6,-76.90682,156.71998
Allan Hills 84155,757,113.9,-76.90557,156.85267
Allan Hills 84156,758,27.8,-76.68787,159.35846
Allan Hills 84157,759,88.6,-76.87213,156.98764
Allan Hills 84158,760,53.7,-76.89695,156.9656
Allan Hills 84159,761,100.8,-76.72351,158.70345
Allan Hills 84160,762,53.9,-76.92288,156.81638
Allan Hills 84161,763,82.9,-76.71086,158.72872
Allan Hills 84162,764,42.3,-76.71427,158.77844
Allan Hills 84163,765,134.9,-76.89216,157.07175
Allan Hills 84164,766,101.4,-76.82065,158.25808
Allan Hills 84165,767,94.7,-76.72679,159.15597
Allan Hills 84166,768,39,-76.70446,159.38647
Allan Hills 84167,769,150.69999999999999,-76.69004,159.35472
Allan Hills 84168,770,14.2,-76.71881,158.65853
Allan Hills 84169,771,98.4,-76.7478,158.84629
Allan Hills 84170,772,39.200000000000003,-76.75606,158.78074
Allan Hills 84171,773,36.6,-76.98612,156.87504
Allan Hills 84172,774,3,-76.75732,158.9042
Allan Hills 84173,775,1.7,-76.82169,158.21104
Allan Hills 84174,776,32.200000000000003,-76.7285,159.26298
Allan Hills 84175,777,35.4,-76.95201,156.93536
Allan Hills 84176,778,4.6,-76.69029,159.38336
Allan Hills 84177,779,7.3,-76.71105,158.74719
Allan Hills 84178,780,0.4,-76.80065,158.12891
Allan Hills 84179,781,46.5,-77.05109,157.06566
Allan Hills 84180,782,47.4,-76.69406,159.35644
Allan Hills 84181,783,32.9,-76.75729,158.90418
Allan Hills 84182,784,14.2,-76.99829,156.93829
Allan Hills 84183,785,27.8,-76.68431,159.3422
Allan Hills 84184,786,42.1,-76.74662,158.85187
Allan Hills 84185,787,4.8,-76.82192,158.24979
Allan Hills 84186,788,19.600000000000001,-76.65807,159.32555
Allan Hills 84187,789,25.9,-76.71976,158.68913
Allan Hills 84188,790,3.1,-76.75272,158.76745
Allan Hills 84189,791,8.699999999999999,-76.71444,158.70131
Allan Hills 84190,792,7.9,-76.68361,159.33783
Allan Hills 84191,793,14,-76.82219,158.32775
Allan Hills 84192,794,4.2,-76.68029,159.34296
Allan Hills 84193,795,9.4,-76.90674,156.82425
Allan Hills 84194,796,3.9,-76.72364,159.41487
Allan Hills 84195,797,2.1,-76.69848,159.39858
Allan Hills 84196,798,10.199999999999999,-76.67941,159.34173
Allan Hills 84197,799,8.199999999999999,-76.75722,158.90399
Allan Hills 84198,800,5.4,-76.80287,158.16296
Allan Hills 84199,801,27.1,-76.95666,156.90066
Allan Hills 84200,802,8.5,-76.75725,158.78341
Allan Hills 84201,803,6.3,-76.7574,158.90775
Allan Hills 84202,804,87.5,-76.71905,158.76475
Allan Hills 84203,805,8.800000000000001,-76.81428,158.14376
Allan Hills 84204,806,24.4,-76.89116,156.89215
Allan Hills 84205,807,25.2,-76.89031,156.99504
Allan Hills 84206,808,15.1,-76.75149,158.76535
Allan Hills 84207,809,4.5,-76.95208,156.93724
Allan Hills 84208,810,20.9,-76.96206,156.93099
Allan Hills 84209,811,5.5,-76.69843,159.39841
Allan Hills 84210,812,8.800000000000001,-76.77051,158.81479
Allan Hills 84211,813,49.2,-76.90272,156.85108
Allan Hills 84212,814,7.1,-76.76216,158.79286
Allan Hills 84213,815,6.7,-76.67544,159.30823
Allan Hills 84214,816,4.9,-76.88141,158.58062
Allan Hills 84215,817,9.199999999999999,-76.67946,159.34206
Allan Hills 84216,818,5.5,-76.8209,158.25076
Allan Hills 84217,819,2.7,-77.0203,156.91357
Allan Hills 84218,820,33,-77.01978,156.91549
Allan Hills 84219,821,9.800000000000001,-77.00107,156.91147
Allan Hills 84220,822,8.4,-76.75646,158.91429
Allan Hills 84221,823,16.399999999999999,-76.88861,157.03
Allan Hills 84222,824,9.9,-76.67395,159.32548
Allan Hills 84223,825,10.6,-77.02619,156.91944
Allan Hills 84224,826,7.2,-76.69405,159.38838
Allan Hills 84225,827,8.699999999999999,-76.65827,159.32682
Allan Hills 84226,828,27.6,-76.67709,159.30462
Allan Hills 84227,829,12.1,-76.71175,158.78789
Allan Hills 84228,830,9.800000000000001,-76.6836,159.34932
Allan Hills 84229,831,6.9,-76.73228,158.81663
Allan Hills 84230,832,2.4,-76.75647,158.91425
Allan Hills 84231,833,42.6,-76.9028,156.95373
Allan Hills 84232,834,9.9,-76.71074,158.74629
Allan Hills 84233,835,13.6,-76.7119,158.72942
Allan Hills 84234,836,3.9,-76.95262,156.9376
Allan Hills 84235,837,6,-76.75174,158.76483
Allan Hills 84236,838,32.299999999999997,-76.70984,159.3266
Allan Hills 84237,839,7.5,-76.69863,159.39845
Allan Hills 84238,840,1.9,-76.80207,158.15703
Allan Hills 84239,841,14.7,-76.68787,159.35847
Allan Hills 84240,842,25.9,-76.76681,158.7999
Allan Hills 84241,843,16.7,-76.97482,156.92322
Allan Hills 84242,844,16.899999999999999,-76.80333,158.16446
Allan Hills 84243,845,48.9,-76.71667,159.66667
Allan Hills 84244,846,33.5,-76.90362,157.00926
Allan Hills 84245,847,18.899999999999999,-76.96351,156.93272
Allan Hills 84246,848,1.8,-76.86689,158.52155
Allan Hills 84247,849,49.6,-76.90913,156.99222
Allan Hills 84248,850,4.9,-76.69255,159.39066
Allan Hills 84249,851,23.4,-76.98428,156.87774
Allan Hills 84250,852,10,-76.75691,158.91155
Allan Hills 84251,853,34.299999999999997,-76.95501,156.93549
Allan Hills 84252,854,3.1,-76.89871,156.79221
Allan Hills 84253,855,7.1,-76.96688,156.92161
Allan Hills 84254,856,2,-76.99141,156.97536
Allan Hills 84255,857,11.3,-76.9522,156.93703
Allan Hills 84256,858,3,-76.7065,158.7323
Allan Hills 84257,859,18.8,-76.96217,156.93101
Allan Hills 84258,860,2.6,-76.9061,156.8297
Allan Hills 84259,861,23.1,-76.7137,158.78281
Allan Hills 84260,862,14.6,-76.73253,159.18976
Allan Hills 84261,863,5.1,-76.90584,156.83258
Allan Hills 84262,864,15.3,-76.72034,158.68736
Allan Hills 84263,865,4.6,-76.75813,158.92426
Allan Hills 84264,866,137.6,-77.05037,157.19686
Allan Hills 85001,867,212.3,-76.8389,156.45213
Allan Hills 85002,868,437.7,-76.91661,156.53194
Allan Hills 85003,869,50.1,-76.90286,156.86987
Allan Hills 85004,870,8.4,-77.035,157.18083
Allan Hills 85005,871,18.899999999999999,-76.9776,156.9358
Allan Hills 85006,872,49,-76.85224,156.31748
Allan Hills 85007,873,82,-76.90541,156.88223
Allan Hills 85008,874,32.1,-76.83662,156.14151
Allan Hills 85009,875,46.6,-76.83697,156.14036
Allan Hills 85010,876,3.2,-76.83631,156.14247
Allan Hills 85011,877,10.7,-76.82728,156.16645
Allan Hills 85012,878,3.9,-77.035,157.18333
Allan Hills 85013,879,130.4,-76.89057,156.46268
Allan Hills 85014,880,75,-76.91791,156.70947
Allan Hills 85015,881,3.2,-76.90892,156.52294
Allan Hills 85016,882,1412,-76.99984,156.95922
Allan Hills 85017,883,2361.4,-76.9033,156.75663
Allan Hills 85018,884,811.8,-76.88268,156.49194
Allan Hills 85019,885,632.79999999999995,-76.91508,156.53178
Allan Hills 85020,886,744.3,-76.90701,156.78603
Allan Hills 85021,887,646.79999999999995,-76.85498,156.46606
Allan Hills 85022,888,951.5,-76.84391,156.36709
Allan Hills 85023,889,438.5,-76.83755,156.41507
Allan Hills 85024,890,387.7,-76.84525,156.43343
Allan Hills 85025,891,713,-76.85539,156.47991
Allan Hills 85026,892,817.1,-76.85858,156.26751
Allan Hills 85027,893,370.4,-76.91433,156.63032
Allan Hills 85028,894,325.7,-76.84829,156.43594
Allan Hills 85029,895,388.8,-76.83961,156.40872
Allan Hills 85030,896,619.70000000000005,-76.88918,156.51355
Allan Hills 85031,897,200.6,-76.89914,156.5252
Allan Hills 85032,898,424.2,-76.86321,156.43632
Allan Hills 85033,899,249.8,-76.86198,156.43418
Allan Hills 85034,900,343.9,-76.92308,156.58744
Allan Hills 85035,901,420.1,-76.73732,159.39194
Allan Hills 85036,902,231.5,-76.83831,156.33386
Allan Hills 85037,903,141.19999999999999,-76.75225,159.38956
Allan Hills 85038,904,124.9,-76.82632,156.13873
Allan Hills 85039,905,140.19999999999999,-76.90414,156.68119
Allan Hills 85040,906,95.7,-76.81776,156.03075
Allan Hills 85041,907,168,-76.70547,159.38484
Allan Hills 85042,908,127.9,-76.90211,156.8671
Allan Hills 85043,909,204.7,-76.91425,156.5072
Allan Hills 85044,910,104.8,-76.70541,159.38493
Allan Hills 85045,911,145,-76.85985,156.43234
Allan Hills 85046,912,148.9,-76.90369,156.87059
Allan Hills 85047,913,4.2,-76.86304,156.51124
Allan Hills 85048,914,16.899999999999999,-76.75243,159.38912
Allan Hills 85049,915,4.8,-76.87975,156.49207
Allan Hills 85050,916,0.9,-76.87869,156.49742
Allan Hills 85051,917,4.9,-76.83928,156.46772
Allan Hills 85052,918,17.399999999999999,-76.82352,156.13328
Allan Hills 85053,919,0.5,-76.90146,156.70958
Allan Hills 85054,920,55.3,-76.84514,156.45805
Allan Hills 85055,921,5.8,-76.90372,156.75302
Allan Hills 85056,922,7.5,-76.84703,156.32009
Allan Hills 85057,923,0.8,-76.8422,156.44009
Allan Hills 85058,924,0.3,-76.91077,156.6584
Allan Hills 85059,925,8.800000000000001,-76.90145,156.68738
Allan Hills 85060,926,0.5,-76.84005,156.22913
Allan Hills 85061,927,2,-76.84217,156.39145
Allan Hills 85062,928,167.3,-76.84511,156.20617
Allan Hills 85063,929,12.7,-76.86188,156.50066
Allan Hills 85064,930,3.7,-76.84218,156.39302
Allan Hills 85065,931,9.699999999999999,-76.83619,156.44564
Allan Hills 85066,932,8,-76.91131,156.5405
Allan Hills 85067,933,1.3,-76.67948,159.34227
Allan Hills 85068,934,3.6,-76.68239,159.3454
Allan Hills 85069,935,4.6,-76.8404,156.42909
Allan Hills 85070,936,12.9,-76.83832,156.33708
Allan Hills 85071,937,18.7,-76.9025,156.72098
Allan Hills 85072,938,4.3,-76.89064,156.53174
Allan Hills 85073,939,15.6,-76.91335,156.66997
Allan Hills 85074,940,3.3,-76.90183,156.70375
Allan Hills 85075,941,36.4,-76.90442,156.69078
Allan Hills 85076,942,78.3,-76.68699,159.34667
Allan Hills 85077,943,12,-76.84301,156.48181
Allan Hills 85078,944,1.2,-76.91079,156.53846
Allan Hills 85079,945,83.1,-76.91622,156.55717
Allan Hills 85080,946,54.2,-76.89823,156.48377
Allan Hills 85081,947,12.2,-76.92089,156.62782
Allan Hills 85082,948,19.399999999999999,-76.90259,156.68577
Allan Hills 85083,949,92.9,-76.90317,156.67366
Allan Hills 85084,950,18.399999999999999,-76.82813,156.11587
Allan Hills 85085,951,11.9,-76.84838,156.42015
Allan Hills 85086,952,12.2,-76.85056,156.31035
Allan Hills 85087,953,11.3,-76.90266,156.72064
Allan Hills 85088,954,0.4,-76.68045,159.34413
Allan Hills 85089,955,1.5,-76.91511,156.64643
Allan Hills 85090,956,10.5,-76.8994,156.81605
Allan Hills 85091,957,31.1,-76.85437,156.22563
Allan Hills 85092,958,25.6,-76.85415,156.43673
Allan Hills 85093,959,11.5,-76.91071,156.53156
Allan Hills 85094,960,8.699999999999999,-76.69828,159.3885
Allan Hills 85095,961,32.5,-76.84001,156.18101
Allan Hills 85096,962,3.1,-76.84357,156.24042
Allan Hills 85097,963,61.4,-76.91725,156.51686
Allan Hills 85098,964,6.8,-76.85055,156.2912
Allan Hills 85099,965,7.1,-76.83955,156.19667
Allan Hills 85100,966,57.7,-76.8527,156.20849
Allan Hills 85101,967,8.1,-76.86028,156.43726
Allan Hills 85102,968,12.6,-76.84062,156.3701
Allan Hills 85103,969,86.9,-76.91572,156.67262
Allan Hills 85104,970,98.9,-76.84577,156.43552
Allan Hills 85105,971,12.4,-76.92345,156.54071
Allan Hills 85106,972,2.7,-76.91052,156.53479
Allan Hills 85107,973,36.6,-76.90675,156.66508
Allan Hills 85108,974,14.6,-76.8502,156.3107
Allan Hills 85109,975,20.7,-76.70592,159.39232
Allan Hills 85110,976,22.2,-76.71667,159.66667
Allan Hills 85111,977,12.9,-76.90198,156.67686
Allan Hills 85112,978,23,-76.85329,156.30473
Allan Hills 85113,979,39.9,-76.91857,156.58304
Allan Hills 85114,980,11.4,-76.83682,156.45274
Allan Hills 85115,981,21.9,-76.90892,156.52294
Allan Hills 85117,982,27.8,-76.90129,156.71473
Allan Hills 85118,983,48,-76.71561,159.37424
Allan Hills 85119,984,20.6,-76.83338,156.17453
Allan Hills 85120,985,8.199999999999999,-76.84749,156.32356
Allan Hills 85121,986,55.3,-76.84468,156.42927
Allan Hills 85122,987,61.2,-76.71667,159.66667
Allan Hills 85123,988,15.3,-76.75241,159.38914
Allan Hills 85124,989,63.5,-76.91188,156.65122
Allan Hills 85125,990,18.8,-76.88684,156.52579
Allan Hills 85126,991,46.5,-76.86039,156.50627
Allan Hills 85127,992,10,-76.9892,156.93936
Allan Hills 85128,993,16.100000000000001,-76.84996,156.31083
Allan Hills 85129,994,127.4,-76.90519,156.75363
Allan Hills 85130,995,99.7,-76.82138,156.03642
Allan Hills 85131,996,34.200000000000003,-76.85114,156.29878
Allan Hills 85132,997,49.3,-76.85107,156.29756
Allan Hills 85133,998,90.6,-77.04626,157.09876
Allan Hills 85134,999,10.4,-76.90304,156.70502
Allan Hills 85135,1000,11.6,-76.84277,156.40228
Allan Hills 85136,1001,75.3,-76.85471,156.47724
Allan Hills 85137,1002,6.7,-76.83509,156.36197
Allan Hills 85138,1003,18,-76.83523,156.44748
Allan Hills 85139,1004,26,-76.90705,156.66818
Allan Hills 85140,1005,9.1,-76.90833,156.96202
Allan Hills 85141,1006,10.6,-76.83541,156.44315
Allan Hills 85142,1007,50.8,-76.83635,156.34682
Allan Hills 85143,1008,17.899999999999999,-76.84689,156.32119
Allan Hills 85144,1009,18.3,-76.69837,159.38364
Allan Hills 85145,1010,45.6,-76.91533,156.98908
Allan Hills 85146,1011,39.700000000000003,-76.83877,156.16673
Allan Hills 85147,1012,3,-76.90149,156.70939
Allan Hills 85148,1013,3.6,-76.89556,156.47672
Allan Hills 85149,1014,16.899999999999999,-76.83519,156.37561
Allan Hills 85150,1015,13,-76.91421,156.53947
Allan Hills 85151,1016,13.9,-76.71667,159.66667
Allan Hills 85152,1017,36.4,-76.84284,156.47912
Allan Hills 85153,1018,0.4,-76.67951,159.34254
Allan Hills 85154,1019,4.9,-76.8302,156.07011
Allan Hills 85155,1020,18.5,-76.84811,156.43685
Allan Hills 85156,1021,32,-76.83646,156.45113
Allan Hills 85157,1022,20.100000000000001,-76.89897,156.49871
Allan Hills 85158,1023,2.9,-76.87787,156.49901
Allan Hills 85159,1024,11,-76.856,156.32705
Allan Hills 86600,1025,411.1,-76.69517,159.36667
Allan Hills 86601,1026,309,-76.71667,159.66667
Allan Hills 86602,1027,264.5,-76.72584,159.40905
Allan Hills 86603,1028,104.5,-76.72947,159.41326
Allan Hills 86604,1029,12.8,-76.70619,159.3658
Allan Hills 86605,1030,12.3,-76.70806,159.30975
Allan Hills 86606,1031,4.5,-76.70562,159.39189
Allan Hills 86607,1032,2.9,-76.73104,159.41678
Allan Hills 86608,1033,9.800000000000001,-76.73058,159.41622
Allan Hills 86609,1034,7.8,-76.73102,159.41686
Allan Hills 86610,1035,0.8,-76.73103,159.41682
Allan Hills 86611,1036,9.300000000000001,-76.72907,159.41208
Allan Hills 86612,1037,1.5,-76.72951,159.41482
Allan Hills 87900,1038,8000,-76.75009,159.34471
Allan Hills 87901,1039,21.5,-76.70624,159.3175
Allan Hills 87902,1040,77.3,-76.76492,159.43019
Allan Hills 87903,1041,32.200000000000003,-76.73942,159.38213
Allan Hills 87904,1042,27.2,-76.70388,159.35405
Allan Hills 87905,1043,28.3,-76.74904,159.2888
Allan Hills 87906,1044,51.6,-76.71667,159.66667
Allan Hills 88001,1045,415,-76.69222,159.29576
Allan Hills 88002,1046,358.4,-76.72211,158.69336
Allan Hills 88003,1047,341,-76.70741,159.32372
Allan Hills 88004,1048,315.7,-76.72991,158.75414
Allan Hills 88005,1049,282,-76.71667,159.66667
Allan Hills 88006,1050,233,-76.73304,158.75694
Allan Hills 88007,1051,156,-76.72606,158.77571
Allan Hills 88008,1052,153.5,-76.69325,159.34809
Allan Hills 88009,1053,152,-76.69227,159.32884
Allan Hills 88010,1054,141.5,-76.72213,158.71676
Allan Hills 88011,1055,103,-76.72395,158.74208
Allan Hills 88012,1056,102.5,-76.72243,158.7182
Allan Hills 88013,1057,89.3,-76.69166,159.31404
Allan Hills 88014,1058,84.1,-76.73142,158.72211
Allan Hills 88015,1059,83.7,-76.68229,159.33794
Allan Hills 88016,1060,73.7,-76.69239,159.33052
Allan Hills 88017,1061,70.400000000000006,-76.68388,159.26182
Allan Hills 88018,1062,67.099999999999994,-76.69307,159.29598
Allan Hills 88019,1063,57.4,-76.72723,159.40941
Allan Hills 88020,1064,53.7,-76.68984,159.35622
Allan Hills 88021,1065,51,-76.71493,159.36729
Allan Hills 88022,1066,47.2,-76.72729,159.37476
Allan Hills 88023,1067,44,-76.68052,159.32914
Allan Hills 88024,1068,37.9,-76.68225,159.31149
Allan Hills 88025,1069,37.200000000000003,-76.7264,158.76884
Allan Hills 88026,1070,37.1,-76.69101,159.32006
Allan Hills 88027,1071,31.6,-76.69948,159.30986
Allan Hills 88028,1072,29.9,-76.69152,159.31626
Allan Hills 88029,1073,29.1,-76.69222,159.29576
Allan Hills 88030,1074,28.5,-76.69222,159.29576
Allan Hills 88031,1075,27.8,-76.72653,159.37696
Allan Hills 88032,1076,27.4,-76.72683,158.71811
Allan Hills 88033,1077,27.3,-76.69395,159.29327
Allan Hills 88034,1078,26.7,-76.72018,159.4026
Allan Hills 88035,1079,26.6,-76.70119,159.31068
Allan Hills 88036,1080,26.4,-76.68219,159.31165
Allan Hills 88037,1081,25.2,-76.7248,159.35382
Allan Hills 88038,1082,25.2,-76.723,158.74015
Allan Hills 88039,1083,24.9,-76.69471,159.28726
Allan Hills 88040,1084,24.6,-76.72481,158.70501
Allan Hills 88041,1085,23.5,-76.68127,159.34557
Allan Hills 88042,1086,22.6,-76.69471,159.28726
Allan Hills 88043,1087,21.1,-76.72216,158.73966
Allan Hills 88044,1088,21,-76.68656,159.34901
Allan Hills 88045,1089,18,-76.70495,159.09493
Allan Hills 88046,1090,20.7,-76.71162,159.15043
Allan Hills 88047,1091,20.6,-76.70061,159.30934
Allan Hills 88048,1092,20.6,-76.68947,159.3436
Allan Hills 88049,1093,20.100000000000001,-76.7003,159.30852
Allan Hills 88050,1094,49.6,-76.68948,159.33485
Allan Hills 88051,1095,19.3,-76.69005,159.38471
Allan Hills 88052,1096,7,-76.70593,159.15664
Allan Hills 88053,1097,18.2,-76.72056,159.40262
Allan Hills 88054,1098,17.8,-76.71543,159.36496
Allan Hills 88055,1099,17.5,-76.69458,159.28725
Allan Hills 88056,1100,17.3,-76.72006,159.40151
Allan Hills 88057,1101,16.600000000000001,-76.69458,159.28725
Allan Hills 88058,1102,15.1,-76.69255,159.30145
Allan Hills 88059,1103,15,-76.68156,159.31
Allan Hills 88060,1104,14.6,-76.73086,158.70316
Allan Hills 88061,1105,13.9,-76.68252,159.34506
Allan Hills 88062,1106,13.8,-76.70534,159.36925
Allan Hills 88063,1107,13.4,-76.69154,159.29707
Allan Hills 88064,1108,13.2,-76.69016,159.38525
Allan Hills 88065,1109,13.8,-76.72146,158.71186
Allan Hills 88066,1110,13.9,-76.68219,159.31165
Allan Hills 88067,1111,13.22,-76.71667,159.33333
Allan Hills 88068,1112,12.79,-76.71667,159.33333
Allan Hills 88069,1113,12.86,-76.71667,159.33333
Allan Hills 88070,1114,12.12,-76.71086,159.15038
Allan Hills 88071,1115,12.1,-76.71667,159.33333
Allan Hills 88072,1116,12.33,-76.72315,158.72353
Allan Hills 88073,1117,12.47,-76.68219,159.31165
Allan Hills 88074,1118,12.42,-76.69205,159.29708
Allan Hills 88075,1119,10.9,-76.71667,159.33333
Allan Hills 88076,1120,11.1,-76.71667,159.33333
Allan Hills 88077,1121,11.3,-76.71667,159.33333
Allan Hills 88078,1122,11.47,-76.71667,159.33333
Allan Hills 88079,1123,11.36,-76.71667,159.33333
Allan Hills 88080,1124,11.54,-76.71667,159.33333
Allan Hills 88081,1125,11.14,-76.72249,158.7338
Allan Hills 88082,1126,11.43,-76.71667,159.33333
Allan Hills 88083,1127,11.86,-76.69205,159.29708
Allan Hills 88084,1128,11.51,-76.71667,159.33333
Allan Hills 88085,1129,10.15,-76.71667,159.33333
Allan Hills 88086,1130,10.08,-76.71667,159.33333
Allan Hills 88087,1131,10.44,-76.71667,159.33333
Allan Hills 88088,1132,10.5,-76.71667,159.33333
Allan Hills 88089,1133,9.16,-76.71667,159.33333
Allan Hills 88090,1134,9.699999999999999,-76.71667,159.33333
Allan Hills 88091,1135,9.36,-76.68789,159.38628
Allan Hills 88092,1136,9.66,-76.71667,159.33333
Allan Hills 88093,1137,8.84,-76.71667,159.33333
Allan Hills 88094,1138,8.27,-76.71667,159.33333
Allan Hills 88095,1139,8.449999999999999,-76.69458,159.28725
Allan Hills 88097,1141,8.33,-76.71667,159.33333
Allan Hills 88098,1142,8.51,-76.68231,159.31165
Allan Hills 88099,1143,8.619999999999999,-76.71667,159.33333
Allan Hills 88100,1144,8.49,-76.71667,159.33333
Allan Hills 88101,1145,8.16,-76.71667,159.33333
Allan Hills 88102,1146,8.33,-76.71667,159.33333
Allan Hills 88103,1147,6.88,-76.71667,159.33333
Allan Hills 88104,1148,7.09,-76.71667,159.33333
Allan Hills 88105,1149,7.38,-76.71667,159.33333
Allan Hills 88106,1150,7.22,-76.71667,159.33333
Allan Hills 88107,1151,7.11,-76.71667,159.33333
Allan Hills 88108,1152,7.12,-76.71667,159.33333
Allan Hills 88109,1153,7.19,-76.71667,159.33333
Allan Hills 88110,1154,8.300000000000001,-76.71667,159.33333
Allan Hills 88111,1155,6.94,-76.71667,159.33333
Allan Hills 88112,1156,6.02,-76.71667,159.33333
Allan Hills 88113,1157,5.84,-76.71667,159.33333
Allan Hills 88114,1158,6.42,-76.71667,159.33333
Allan Hills 88115,1159,6.03,-76.71667,159.33333
Allan Hills 88116,1160,6.74,-76.71667,159.33333
Allan Hills 88117,1161,5.16,-76.71667,159.33333
Allan Hills 88118,1162,5.72,-76.71667,159.33333
Allan Hills 88119,1163,5.06,-76.69458,159.28725
Allan Hills 88124,1168,5.39,-76.68052,159.32969
Allan Hills 88129,1173,4.68,-76.69458,159.28725
Allan Hills 88135,1179,4.75,-76.69106,159.28169
Allan Hills 88148,1192,2.4,-76.69341,159.40893
Allan Hills 88149,1193,2.76,-76.71086,159.15038
Allan Hills 88155,1199,2.44,-76.71086,159.15038
Allan Hills 88159,1203,2.12,-76.71086,159.15038
Allan Hills 90400,1243,36.299999999999997,-76.73561,159.37968
Allan Hills 90401,1244,274.10000000000002,-76.72511,159.19525
Allan Hills 90402,1245,1.7,-76.70085,159.39389
Allan Hills 90403,1246,38.6,-76.7232,159.27343
Allan Hills 90404,1247,36.6,-76.72984,159.21444
Allan Hills 90405,1248,210.4,-76.73758,159.40921
Allan Hills 90406,1249,6.8,-76.9512,156.93593
Allan Hills 90407,1250,0.6,-76.95444,156.93741
Allan Hills 90408,1251,9,-76.96706,156.90663
Allan Hills 90409,1252,0.8,-76.97131,156.90059
Allan Hills 90410,1253,20.100000000000001,-76.97765,156.92485
Allan Hills 90411,1254,5836.5,-76.98079,156.93013
Allan Hills 90412,1255,6.3,-77.01668,156.92231
Allan Hills 90413,1256,54.8,-77.01544,156.93008
Allan Hills 90414,1257,15.6,-77.02314,156.98036
Allan Hills 94001,1258,196.5,-76.71667,159.66667
Allan Hills 94002,1259,8.9,-76.71667,159.66667
Allan Hills 94003,1260,90.2,-76.71667,159.66667
Allan Hills 94004,1261,5.6,-76.71667,159.66667
Allan Hills 94005,1262,8.199999999999999,-76.71667,159.66667
Allan Hills 94006,1263,13.5,-76.71667,159.66667
Allan Hills 94007,1264,1.2,-76.71667,159.66667
Allan Hills 94008,1265,6.3,-76.71667,159.66667
Allan Hills 94009,1266,25.3,-76.71667,159.66667
Allan Hills 94010,1267,8,-76.71667,159.66667
Allan Hills 94011,1268,2.4,-76.71667,159.66667
Allan Hills 94012,1269,9,-76.71667,159.66667
Allan Hills 94013,1270,10.6,-76.71667,159.66667
Allan Hills 94014,1271,22.9,-76.71667,159.66667
Allan Hills 94015,1272,8.1,-76.71667,159.66667
Allan Hills 94016,1273,9.800000000000001,-76.71667,159.66667
Allan Hills 94017,1274,9.6,-76.71667,159.66667
Allan Hills 94018,1275,36.299999999999997,-76.71667,159.66667
Allan Hills 94019,1276,6.1,-76.71667,159.66667
Allan Hills 94020,1277,14.3,-76.71667,159.66667
Allan Hills 95100,1278,19.3,-76.71667,159.66667
Allan Hills 95101,1279,12.2,-76.71667,159.66667
Allan Hills 95102,1280,7,-76.71667,159.66667
Allan Hills 95103,1281,12.9,-76.71667,159.66667
Allan Hills 95104,1282,1.5,-76.71667,159.66667
Allan Hills 95105,1283,1.1,-76.71667,159.66667
Allan Hills 95106,1284,1.4,-76.71667,159.66667
Allan Hills 95107,1285,26.2,-76.71667,159.66667
Allan Hills 95108,1286,8.699999999999999,-76.71667,159.66667
Allan Hills 95109,1287,20.3,-76.71667,159.66667
Allan Hills 97100,1288,342.8,-76.71667,159.66667
Allan Hills 97101,1289,222.4,-76.71667,159.66667
Allan Hills 97102,1290,190.3,-76.71667,159.66667
Allan Hills 97103,1291,83.3,-76.71667,159.66667
Allan Hills 97104,1292,67.099999999999994,-76.71667,159.66667
Allan Hills 97105,1293,17.8,-76.71667,159.66667
Allan Hills 97106,1294,15.3,-76.71667,159.66667
Allan Hills 97107,1295,44.1,-76.71667,159.66667
Allan Hills 97108,1296,60.1,-76.71667,159.66667
Allan Hills 97109,1297,33.4,-76.71667,159.66667
Allan Hills 97110,1298,3.6,-76.71667,159.66667
Allan Hills 97111,1299,8.9,-76.71667,159.66667
Allan Hills 99101,1300,103.4,-76.76098,159.45252
Allan Hills 99500,1301,13.6,-76.71667,159.66667
Allan Hills 99501,1302,20.3,-76.71667,159.66667
Allan Hills 99502,1303,13.7,-76.71667,159.66667
Allan Hills 99503,1304,36.1,-76.71667,159.66667
Allan Hills 99504,1305,186,-76.71667,159.66667
Allan Hills 99505,1306,453.6,-76.71667,159.66667
Allan Hills 99506,1307,1009.2,-76.71667,159.66667
Allan Hills A76001,1308,20151,-76.75,159.33333
Allan Hills A76002,1309,1510,-76.71667,159.66667
Allan Hills A76003,1310,10495,-76.71667,159.66667
Allan Hills A76004,1311,305,-76.71667,159.66667
Allan Hills A76005,1312,1425,-76.71667,159.66667
Allan Hills A76006,1313,1137,-76.71667,159.66667
Allan Hills A76007,1314,410,-76.71667,159.66667
Allan Hills A76008,1315,1150,-76.71667,159.66667
Allan Hills A76009,1316,407000,-76.71667,159.66667
Allan Hills A77001,1317,252,-76.75,159.33333
Allan Hills A77002,1318,235.2,-76.71667,159.66667
Allan Hills A77003,1319,779.6,-76.71667,159.66667
Allan Hills A77004,1320,2230,-76.71667,159.66667
Allan Hills A77005,1321,482.5,-76.71667,159.66667
Allan Hills A77007,1322,99.3,-76.71667,159.66667
Allan Hills A77008,1323,93,-76.71667,159.66667
Allan Hills A77009,1324,235.5,-76.71667,159.66667
Allan Hills A77010,1325,295.8,-76.71667,159.66667
Allan Hills A77011,1326,291.5,-76.71667,159.66667
Allan Hills A77012,1327,180.2,-76.71667,159.66667
Allan Hills A77013,1328,23,-76.71667,159.66667
Allan Hills A77014,1329,308.8,-76.71667,159.66667
Allan Hills A77015,1330,411.1,-76.71667,159.66667
Allan Hills A77016,1331,78.3,-76.71667,159.66667
Allan Hills A77017,1332,77.900000000000006,-76.71667,159.66667
Allan Hills A77018,1333,51.8,-76.71667,159.66667
Allan Hills A77019,1334,59.8,-76.71667,159.66667
Allan Hills A77021,1335,16.7,-76.71667,159.66667
Allan Hills A77022,1336,16,-76.71667,159.66667
Allan Hills A77023,1337,21.4,-76.71667,159.66667
Allan Hills A77024,1338,10.75,-76.71667,159.66667
Allan Hills A77025,1339,19.399999999999999,-76.71667,159.66667
Allan Hills A77026,1340,20.3,-76.71667,159.66667
Allan Hills A77027,1341,3.7,-76.71667,159.66667
Allan Hills A77028,1342,0.53,-76.71667,159.66667
Allan Hills A77029,1343,1.4,-76.71667,159.66667
Allan Hills A77030,1344,0.8,-76.71667,159.66667
Allan Hills A77031,1345,0.5,-76.71667,159.66667
Allan Hills A77032,1346,6.74,-76.71667,159.66667
Allan Hills A77033,1347,9.300000000000001,-76.71667,159.66667
Allan Hills A77034,1348,1.8,-76.71667,159.66667
Allan Hills A77035,1349,1.67,-76.71667,159.66667
Allan Hills A77036,1350,8.5,-76.71667,159.66667
Allan Hills A77037,1351,2.33,-76.71667,159.66667
Allan Hills A77038,1352,18.8,-76.71667,159.66667
Allan Hills A77039,1353,8.199999999999999,-76.71667,159.66667
Allan Hills A77040,1354,2.3,-76.71667,159.66667
Allan Hills A77041,1355,16.600000000000001,-76.71667,159.66667
Allan Hills A77042,1356,20.399999999999999,-76.71667,159.66667
Allan Hills A77043,1357,11.4,-76.71667,159.66667
Allan Hills A77044,1358,12.25,-76.71667,159.66667
Allan Hills A77045,1359,17.899999999999999,-76.71667,159.66667
Allan Hills A77046,1360,7.6,-76.71667,159.66667
Allan Hills A77047,1361,20.5,-76.71667,159.66667
Allan Hills A77048,1362,14.93,-76.71667,159.66667
Allan Hills A77049,1363,7.3,-76.71667,159.66667
Allan Hills A77050,1364,84.2,-76.71667,159.66667
Allan Hills A77051,1365,15,-76.71667,159.66667
Allan Hills A77052,1366,112.2,-76.71667,159.66667
Allan Hills A77053,1367,13.05,-76.71667,159.66667
Allan Hills A77054,1368,10.4,-76.71667,159.66667
Allan Hills A77055,1369,5.07,-76.71667,159.66667
Allan Hills A77056,1370,12.3,-76.71667,159.66667
Allan Hills A77057,1371,3.03,-76.71667,159.66667
Allan Hills A77058,1372,3.7,-76.71667,159.66667
Allan Hills A77059,1373,6.44,-76.71667,159.66667
Allan Hills A77060,1374,64.400000000000006,-76.71667,159.66667
Allan Hills A77061,1375,12.6,-76.71667,159.66667
Allan Hills A77062,1376,16.7,-76.71667,159.66667
Allan Hills A77063,1377,2.9,-76.71667,159.66667
Allan Hills A77064,1378,6.5,-76.71667,159.66667
Allan Hills A77065,1379,2.65,-76.71667,159.66667
Allan Hills A77066,1380,4.9,-76.71667,159.66667
Allan Hills A77067,1381,4.09,-76.71667,159.66667
Allan Hills A77069,1382,0.8,-76.71667,159.66667
Allan Hills A77070,1383,18.399999999999999,-76.71667,159.66667
